{
  "frozen_at": "2026-04-29T08:09:09.470059+00:00",
  "core_communities": [
    {
      "name": "Los Angeles, CA",
      "state": "CA",
      "city": "Los Angeles",
      "zipcode": "90001",
      "latitude": 34.0522,
      "longitude": -118.2437,
      "population": 500000,
      "area": 50.0
    },
    {
      "name": "San Francisco, CA",
      "state": "CA",
      "city": "San Francisco",
      "zipcode": "94102",
      "latitude": 37.7749,
      "longitude": -122.4194,
      "population": 300000,
      "area": 30.0
    },
    {
      "name": "New York, NY",
      "state": "NY",
      "city": "New York",
      "zipcode": "10001",
      "latitude": 40.7128,
      "longitude": -74.006,
      "population": 1000000,
      "area": 60.0
    },
    {
      "name": "Chicago, IL",
      "state": "IL",
      "city": "Chicago",
      "zipcode": "60601",
      "latitude": 41.8781,
      "longitude": -87.6298,
      "population": 400000,
      "area": 45.0
    },
    {
      "name": "Kent, MI",
      "state": "MI",
      "city": "Kent",
      "zipcode": null,
      "latitude": 42.976667,
      "longitude": -85.603333,
      "population": 300000,
      "area": 40.0
    },
    {
      "name": "Davidson, TN",
      "state": "TN",
      "city": "Davidson",
      "zipcode": null,
      "latitude": 36.21,
      "longitude": -86.2,
      "population": 300000,
      "area": 40.0
    },
    {
      "name": "Rx-young 1 Prescribed Fire, WI",
      "state": "WI",
      "city": "Rx-young 1 Prescribed Fire",
      "zipcode": null,
      "latitude": 42.845599,
      "longitude": -88.630401,
      "population": 300000,
      "area": 40.0
    },
    {
      "name": "Cook, MN",
      "state": "MN",
      "city": "Cook",
      "zipcode": null,
      "latitude": 47.715,
      "longitude": -91.88,
      "population": 300000,
      "area": 40.0
    },
    {
      "name": "Des Moines, IL",
      "state": "IL",
      "city": "Des Moines",
      "zipcode": null,
      "latitude": 40.9,
      "longitude": -91.045,
      "population": 300000,
      "area": 40.0
    },
    {
      "name": "Lewis, MO",
      "state": "MO",
      "city": "Lewis",
      "zipcode": null,
      "latitude": 40.18,
      "longitude": -91.95,
      "population": 300000,
      "area": 40.0
    },
    {
      "name": "Austin, TX",
      "state": "TX",
      "city": "Austin",
      "zipcode": "78701",
      "latitude": 31.9686,
      "longitude": -99.9018,
      "population": 200000,
      "area": 25.0
    },
    {
      "name": "57 km NW of Toyah, KM",
      "state": "KM",
      "city": "57 km NW of Toyah",
      "zipcode": null,
      "latitude": 31.635,
      "longitude": -104.271,
      "population": 200000,
      "area": 25.0
    },
    {
      "name": "58 km NW of McCarthy, KM",
      "state": "KM",
      "city": "58 km NW of McCarthy",
      "zipcode": null,
      "latitude": 61.862,
      "longitude": -143.556,
      "population": 200000,
      "area": 25.0
    },
    {
      "name": "9 km ENE of Seldovia Village, KM",
      "state": "KM",
      "city": "9 km ENE of Seldovia Village",
      "zipcode": null,
      "latitude": 59.511,
      "longitude": -151.498,
      "population": 200000,
      "area": 25.0
    },
    {
      "name": "19 km WNW of Shoshone, KM",
      "state": "KM",
      "city": "19 km WNW of Shoshone",
      "zipcode": null,
      "latitude": 36.0198,
      "longitude": -116.4774,
      "population": 200000,
      "area": 25.0
    },
    {
      "name": "12 km W of Ludlow, CA",
      "state": "CA",
      "city": "12 km W of Ludlow",
      "zipcode": null,
      "latitude": 34.7208333333333,
      "longitude": -116.293,
      "population": 200000,
      "area": 25.0
    },
    {
      "name": "16 km NE of Little Lake, CA",
      "state": "CA",
      "city": "16 km NE of Little Lake",
      "zipcode": null,
      "latitude": 36.0256666666667,
      "longitude": -117.772333333333,
      "population": 200000,
      "area": 25.0
    },
    {
      "name": "16 km ENE of Alpine, KM",
      "state": "KM",
      "city": "16 km ENE of Alpine",
      "zipcode": null,
      "latitude": 30.432,
      "longitude": -103.515,
      "population": 200000,
      "area": 25.0
    },
    {
      "name": "50 km NW of Ninilchik, KM",
      "state": "KM",
      "city": "50 km NW of Ninilchik",
      "zipcode": null,
      "latitude": 60.363,
      "longitude": -152.328,
      "population": 200000,
      "area": 25.0
    },
    {
      "name": "21 km N of Searles Valley, CA",
      "state": "CA",
      "city": "21 km N of Searles Valley",
      "zipcode": null,
      "latitude": 35.9541666666667,
      "longitude": -117.391166666667,
      "population": 200000,
      "area": 25.0
    },
    {
      "name": "13 km WSW of Petrolia, CA",
      "state": "CA",
      "city": "13 km WSW of Petrolia",
      "zipcode": null,
      "latitude": 40.2898330688477,
      "longitude": -124.427169799805,
      "population": 200000,
      "area": 25.0
    },
    {
      "name": "4 km SSW of Pāhala, KM",
      "state": "KM",
      "city": "4 km SSW of Pāhala",
      "zipcode": null,
      "latitude": 19.1678333282471,
      "longitude": -155.489837646484,
      "population": 200000,
      "area": 25.0
    },
    {
      "name": "56 km S of Whites City, KM",
      "state": "KM",
      "city": "56 km S of Whites City",
      "zipcode": null,
      "latitude": 31.662,
      "longitude": -104.391,
      "population": 200000,
      "area": 25.0
    },
    {
      "name": "55 km S of Whites City, KM",
      "state": "KM",
      "city": "55 km S of Whites City",
      "zipcode": null,
      "latitude": 31.671,
      "longitude": -104.371,
      "population": 200000,
      "area": 25.0
    },
    {
      "name": "33 km N of Valdez, KM",
      "state": "KM",
      "city": "33 km N of Valdez",
      "zipcode": null,
      "latitude": 61.427,
      "longitude": -146.408,
      "population": 200000,
      "area": 25.0
    },
    {
      "name": "80 km NW of Karluk, KM",
      "state": "KM",
      "city": "80 km NW of Karluk",
      "zipcode": null,
      "latitude": 58.161,
      "longitude": -155.24,
      "population": 200000,
      "area": 25.0
    },
    {
      "name": "12 km NW of Whites City, KM",
      "state": "KM",
      "city": "12 km NW of Whites City",
      "zipcode": null,
      "latitude": 32.2628,
      "longitude": -104.4677,
      "population": 200000,
      "area": 25.0
    },
    {
      "name": "39 km SSE of Glacier View, KM",
      "state": "KM",
      "city": "39 km SSE of Glacier View",
      "zipcode": null,
      "latitude": 61.48,
      "longitude": -147.38,
      "population": 200000,
      "area": 25.0
    },
    {
      "name": "4 km S of Redwood Valley, CA",
      "state": "CA",
      "city": "4 km S of Redwood Valley",
      "zipcode": null,
      "latitude": 39.2270011901855,
      "longitude": -123.196166992188,
      "population": 200000,
      "area": 25.0
    },
    {
      "name": "31 km ESE of Susitna North, KM",
      "state": "KM",
      "city": "31 km ESE of Susitna North",
      "zipcode": null,
      "latitude": 62.044,
      "longitude": -149.292,
      "population": 200000,
      "area": 25.0
    },
    {
      "name": "63 km E of Pedro Bay, KM",
      "state": "KM",
      "city": "63 km E of Pedro Bay",
      "zipcode": null,
      "latitude": 59.69,
      "longitude": -153.0,
      "population": 200000,
      "area": 25.0
    },
    {
      "name": "56 km W of Anchor Point, KM",
      "state": "KM",
      "city": "56 km W of Anchor Point",
      "zipcode": null,
      "latitude": 59.879,
      "longitude": -152.826,
      "population": 200000,
      "area": 25.0
    },
    {
      "name": "31 km SW of Salcha, KM",
      "state": "KM",
      "city": "31 km SW of Salcha",
      "zipcode": null,
      "latitude": 64.291,
      "longitude": -147.278,
      "population": 200000,
      "area": 25.0
    },
    {
      "name": "19 km E of Little Lake, CA",
      "state": "CA",
      "city": "19 km E of Little Lake",
      "zipcode": null,
      "latitude": 35.9253333333333,
      "longitude": -117.693333333333,
      "population": 200000,
      "area": 25.0
    },
    {
      "name": "20 km E of Little Lake, CA",
      "state": "CA",
      "city": "20 km E of Little Lake",
      "zipcode": null,
      "latitude": 35.9205,
      "longitude": -117.688166666667,
      "population": 200000,
      "area": 25.0
    },
    {
      "name": "8 km SSE of Olancha, CA",
      "state": "CA",
      "city": "8 km SSE of Olancha",
      "zipcode": null,
      "latitude": 36.2158333333333,
      "longitude": -117.9755,
      "population": 200000,
      "area": 25.0
    },
    {
      "name": "14 km NE of Milford, KM",
      "state": "KM",
      "city": "14 km NE of Milford",
      "zipcode": null,
      "latitude": 38.5015,
      "longitude": -112.915166666667,
      "population": 200000,
      "area": 25.0
    },
    {
      "name": "60 km S of Glacier View, KM",
      "state": "KM",
      "city": "60 km S of Glacier View",
      "zipcode": null,
      "latitude": 61.263,
      "longitude": -147.717,
      "population": 200000,
      "area": 25.0
    },
    {
      "name": "14 km NNE of Milford, KM",
      "state": "KM",
      "city": "14 km NNE of Milford",
      "zipcode": null,
      "latitude": 38.5099983215332,
      "longitude": -112.920501708984,
      "population": 200000,
      "area": 25.0
    },
    {
      "name": "47 km ESE of Pedro Bay, KM",
      "state": "KM",
      "city": "47 km ESE of Pedro Bay",
      "zipcode": null,
      "latitude": 59.572,
      "longitude": -153.369,
      "population": 200000,
      "area": 25.0
    },
    {
      "name": "23 km SW of Ackerly, KM",
      "state": "KM",
      "city": "23 km SW of Ackerly",
      "zipcode": null,
      "latitude": 32.41,
      "longitude": -101.919,
      "population": 200000,
      "area": 25.0
    },
    {
      "name": "57 km S of Whites City, KM",
      "state": "KM",
      "city": "57 km S of Whites City",
      "zipcode": null,
      "latitude": 31.654,
      "longitude": -104.352,
      "population": 200000,
      "area": 25.0
    },
    {
      "name": "Polk, MN",
      "state": "MN",
      "city": "Polk",
      "zipcode": null,
      "latitude": 47.94,
      "longitude": -97.01,
      "population": 200000,
      "area": 25.0
    },
    {
      "name": "22 km SSE of Pāhala, KM",
      "state": "KM",
      "city": "22 km SSE of Pāhala",
      "zipcode": null,
      "latitude": 19.0288333892822,
      "longitude": -155.370498657227,
      "population": 200000,
      "area": 25.0
    },
    {
      "name": "68 km N of Chickaloon, KM",
      "state": "KM",
      "city": "68 km N of Chickaloon",
      "zipcode": null,
      "latitude": 62.408,
      "longitude": -148.464,
      "population": 200000,
      "area": 25.0
    },
    {
      "name": "21 km E of Little Lake, CA",
      "state": "CA",
      "city": "21 km E of Little Lake",
      "zipcode": null,
      "latitude": 35.9241666666667,
      "longitude": -117.674333333333,
      "population": 200000,
      "area": 25.0
    },
    {
      "name": "23 km SSE of Pāhala, KM",
      "state": "KM",
      "city": "23 km SSE of Pāhala",
      "zipcode": null,
      "latitude": 19.0216674804688,
      "longitude": -155.358505249023,
      "population": 200000,
      "area": 25.0
    },
    {
      "name": "23 km N of Pāhala, KM",
      "state": "KM",
      "city": "23 km N of Pāhala",
      "zipcode": null,
      "latitude": 19.4150009155273,
      "longitude": -155.469833374023,
      "population": 200000,
      "area": 25.0
    },
    {
      "name": "55 km NW of Karluk, KM",
      "state": "KM",
      "city": "55 km NW of Karluk",
      "zipcode": null,
      "latitude": 57.967,
      "longitude": -155.022,
      "population": 200000,
      "area": 25.0
    },
    {
      "name": "46 km WNW of Valdez, KM",
      "state": "KM",
      "city": "46 km WNW of Valdez",
      "zipcode": null,
      "latitude": 61.342,
      "longitude": -147.097,
      "population": 200000,
      "area": 25.0
    },
    {
      "name": "11 km NNE of Ridgeway, KM",
      "state": "KM",
      "city": "11 km NNE of Ridgeway",
      "zipcode": null,
      "latitude": 60.622,
      "longitude": -151.003,
      "population": 200000,
      "area": 25.0
    },
    {
      "name": "Grant",
      "state": "US",
      "city": "Grant",
      "zipcode": null,
      "latitude": 46.012,
      "longitude": -95.8944,
      "population": 200000,
      "area": 25.0
    },
    {
      "name": "10 km SSW of Willow, KM",
      "state": "KM",
      "city": "10 km SSW of Willow",
      "zipcode": null,
      "latitude": 61.656,
      "longitude": -150.078,
      "population": 200000,
      "area": 25.0
    },
    {
      "name": "B.C., MX",
      "state": "MX",
      "city": "B.C.",
      "zipcode": null,
      "latitude": 32.2666666666667,
      "longitude": -115.324666666667,
      "population": 200000,
      "area": 25.0
    },
    {
      "name": "67 km ENE of Tonopah, KM",
      "state": "KM",
      "city": "67 km ENE of Tonopah",
      "zipcode": null,
      "latitude": 38.1949,
      "longitude": -116.4729,
      "population": 200000,
      "area": 25.0
    },
    {
      "name": "17 km ENE of Deep Springs, CA",
      "state": "CA",
      "city": "17 km ENE of Deep Springs",
      "zipcode": null,
      "latitude": 37.4251670837402,
      "longitude": -117.799003601074,
      "population": 200000,
      "area": 25.0
    },
    {
      "name": "16 km NNE of Ashford, KM",
      "state": "KM",
      "city": "16 km NNE of Ashford",
      "zipcode": null,
      "latitude": 46.897,
      "longitude": -121.9635,
      "population": 200000,
      "area": 25.0
    },
    {
      "name": "22 km SW of La Quinta, CA",
      "state": "CA",
      "city": "22 km SW of La Quinta",
      "zipcode": null,
      "latitude": 33.4998333333333,
      "longitude": -116.441833333333,
      "population": 200000,
      "area": 25.0
    },
    {
      "name": "61 km ENE of Pedro Bay, KM",
      "state": "KM",
      "city": "61 km ENE of Pedro Bay",
      "zipcode": null,
      "latitude": 60.0113333333333,
      "longitude": -153.1085,
      "population": 200000,
      "area": 25.0
    },
    {
      "name": "16 km ENE of Borrego Springs, CA",
      "state": "CA",
      "city": "16 km ENE of Borrego Springs",
      "zipcode": null,
      "latitude": 33.296,
      "longitude": -116.204666666667,
      "population": 200000,
      "area": 25.0
    },
    {
      "name": "5 km WSW of Meadow Lakes, KM",
      "state": "KM",
      "city": "5 km WSW of Meadow Lakes",
      "zipcode": null,
      "latitude": 61.614,
      "longitude": -149.701,
      "population": 200000,
      "area": 25.0
    },
    {
      "name": "67 km NE of Nikolski, KM",
      "state": "KM",
      "city": "67 km NE of Nikolski",
      "zipcode": null,
      "latitude": 53.392,
      "longitude": -168.185166666667,
      "population": 200000,
      "area": 25.0
    },
    {
      "name": "22 km NW of Petrolia, CA",
      "state": "CA",
      "city": "22 km NW of Petrolia",
      "zipcode": null,
      "latitude": 40.4411659240723,
      "longitude": -124.495834350586,
      "population": 200000,
      "area": 25.0
    },
    {
      "name": "99 km N of Yakutat, KM",
      "state": "KM",
      "city": "99 km N of Yakutat",
      "zipcode": null,
      "latitude": 60.431,
      "longitude": -139.532,
      "population": 200000,
      "area": 25.0
    },
    {
      "name": "33 km SSW of Dry Creek, KM",
      "state": "KM",
      "city": "33 km SSW of Dry Creek",
      "zipcode": null,
      "latitude": 63.369,
      "longitude": -144.889,
      "population": 200000,
      "area": 25.0
    },
    {
      "name": "85 km WNW of Karluk, KM",
      "state": "KM",
      "city": "85 km WNW of Karluk",
      "zipcode": null,
      "latitude": 57.8741666666667,
      "longitude": -155.770833333333,
      "population": 200000,
      "area": 25.0
    },
    {
      "name": "Burnett",
      "state": "US",
      "city": "Burnett",
      "zipcode": null,
      "latitude": 45.7153853,
      "longitude": -92.6888328,
      "population": 200000,
      "area": 25.0
    },
    {
      "name": "1 km SE of Kapowsin, KM",
      "state": "KM",
      "city": "1 km SE of Kapowsin",
      "zipcode": null,
      "latitude": 46.974334716796875,
      "longitude": -122.21150207519531,
      "population": 200000,
      "area": 25.0
    },
    {
      "name": "18 km NNW of Indian Springs, KM",
      "state": "KM",
      "city": "18 km NNW of Indian Springs",
      "zipcode": null,
      "latitude": 36.7235,
      "longitude": -115.7481,
      "population": 200000,
      "area": 25.0
    },
    {
      "name": "23 km NNW of Borrego Springs, CA",
      "state": "CA",
      "city": "23 km NNW of Borrego Springs",
      "zipcode": null,
      "latitude": 33.4606666666667,
      "longitude": -116.427666666667,
      "population": 200000,
      "area": 25.0
    },
    {
      "name": "13 km NE of Milford, KM",
      "state": "KM",
      "city": "13 km NE of Milford",
      "zipcode": null,
      "latitude": 38.4905,
      "longitude": -112.906833333333,
      "population": 200000,
      "area": 25.0
    },
    {
      "name": "37 km ESE of Pāhala, KM",
      "state": "KM",
      "city": "37 km ESE of Pāhala",
      "zipcode": null,
      "latitude": 19.0904998779297,
      "longitude": -155.145492553711,
      "population": 200000,
      "area": 25.0
    },
    {
      "name": "24 km NNE of Ivanof Bay, KM",
      "state": "KM",
      "city": "24 km NNE of Ivanof Bay",
      "zipcode": null,
      "latitude": 56.1015,
      "longitude": -159.3375,
      "population": 200000,
      "area": 25.0
    },
    {
      "name": "10 km W of Tatitlek, KM",
      "state": "KM",
      "city": "10 km W of Tatitlek",
      "zipcode": null,
      "latitude": 60.877,
      "longitude": -146.873,
      "population": 200000,
      "area": 25.0
    },
    {
      "name": "95 km N of Yakutat, KM",
      "state": "KM",
      "city": "95 km N of Yakutat",
      "zipcode": null,
      "latitude": 60.4,
      "longitude": -139.557,
      "population": 200000,
      "area": 25.0
    },
    {
      "name": "11 km S of Port Orford, KM",
      "state": "KM",
      "city": "11 km S of Port Orford",
      "zipcode": null,
      "latitude": 42.64383333333333,
      "longitude": -124.501,
      "population": 200000,
      "area": 25.0
    },
    {
      "name": "60 km W of Happy Valley, KM",
      "state": "KM",
      "city": "60 km W of Happy Valley",
      "zipcode": null,
      "latitude": 60.031,
      "longitude": -152.801,
      "population": 200000,
      "area": 25.0
    },
    {
      "name": "47 km W of Cantwell, KM",
      "state": "KM",
      "city": "47 km W of Cantwell",
      "zipcode": null,
      "latitude": 63.469,
      "longitude": -149.891,
      "population": 200000,
      "area": 25.0
    },
    {
      "name": "60 km ENE of Pedro Bay, KM",
      "state": "KM",
      "city": "60 km ENE of Pedro Bay",
      "zipcode": null,
      "latitude": 60.0086666666667,
      "longitude": -153.121,
      "population": 200000,
      "area": 25.0
    },
    {
      "name": "35 km SE of Old Harbor, KM",
      "state": "KM",
      "city": "35 km SE of Old Harbor",
      "zipcode": null,
      "latitude": 57.019,
      "longitude": -152.836,
      "population": 200000,
      "area": 25.0
    },
    {
      "name": "91 km SSE of Sand Point, KM",
      "state": "KM",
      "city": "91 km SSE of Sand Point",
      "zipcode": null,
      "latitude": 54.544,
      "longitude": -160.094,
      "population": 200000,
      "area": 25.0
    },
    {
      "name": "11 km NNW of Kanarraville, KM",
      "state": "KM",
      "city": "11 km NNW of Kanarraville",
      "zipcode": null,
      "latitude": 37.637,
      "longitude": -113.226166666667,
      "population": 200000,
      "area": 25.0
    },
    {
      "name": "40 km WNW of Winthrop, KM",
      "state": "KM",
      "city": "40 km WNW of Winthrop",
      "zipcode": null,
      "latitude": 48.626333333333335,
      "longitude": -120.68383333333334,
      "population": 200000,
      "area": 25.0
    },
    {
      "name": "1 km S of Volcano, KM",
      "state": "KM",
      "city": "1 km S of Volcano",
      "zipcode": null,
      "latitude": 19.4311666666667,
      "longitude": -155.2335,
      "population": 200000,
      "area": 25.0
    },
    {
      "name": "18 km ESE of Little Lake, CA",
      "state": "CA",
      "city": "18 km ESE of Little Lake",
      "zipcode": null,
      "latitude": 35.8688333333333,
      "longitude": -117.724166666667,
      "population": 200000,
      "area": 25.0
    },
    {
      "name": "0 km SSE of Volcano, KM",
      "state": "KM",
      "city": "0 km SSE of Volcano",
      "zipcode": null,
      "latitude": 19.4375,
      "longitude": -155.232666666667,
      "population": 200000,
      "area": 25.0
    },
    {
      "name": "21 km ESE of Funny River, KM",
      "state": "KM",
      "city": "21 km ESE of Funny River",
      "zipcode": null,
      "latitude": 60.463,
      "longitude": -150.381,
      "population": 200000,
      "area": 25.0
    },
    {
      "name": "15 km SE of Julian, CA",
      "state": "CA",
      "city": "15 km SE of Julian",
      "zipcode": null,
      "latitude": 32.9983333333333,
      "longitude": -116.472166666667,
      "population": 200000,
      "area": 25.0
    },
    {
      "name": "1 km SSW of Pāhala, KM",
      "state": "KM",
      "city": "1 km SSW of Pāhala",
      "zipcode": null,
      "latitude": 19.1948337554932,
      "longitude": -155.483993530273,
      "population": 200000,
      "area": 25.0
    },
    {
      "name": "104 km SE of False Pass, KM",
      "state": "KM",
      "city": "104 km SE of False Pass",
      "zipcode": null,
      "latitude": 54.121,
      "longitude": -162.404,
      "population": 200000,
      "area": 25.0
    },
    {
      "name": "19 km W of Ivanof Bay, KM",
      "state": "KM",
      "city": "19 km W of Ivanof Bay",
      "zipcode": null,
      "latitude": 55.9205,
      "longitude": -159.799666666667,
      "population": 200000,
      "area": 25.0
    },
    {
      "name": "19 km NE of Gardendale, KM",
      "state": "KM",
      "city": "19 km NE of Gardendale",
      "zipcode": null,
      "latitude": 32.15,
      "longitude": -102.238,
      "population": 200000,
      "area": 25.0
    },
    {
      "name": "11 km WSW of Stanton, KM",
      "state": "KM",
      "city": "11 km WSW of Stanton",
      "zipcode": null,
      "latitude": 32.103,
      "longitude": -101.907,
      "population": 200000,
      "area": 25.0
    },
    {
      "name": "4 km SSE of Redwood Valley, CA",
      "state": "CA",
      "city": "4 km SSE of Redwood Valley",
      "zipcode": null,
      "latitude": 39.2285003662109,
      "longitude": -123.1943359375,
      "population": 200000,
      "area": 25.0
    },
    {
      "name": "85 km NNW of Karluk, KM",
      "state": "KM",
      "city": "85 km NNW of Karluk",
      "zipcode": null,
      "latitude": 58.277,
      "longitude": -154.993,
      "population": 200000,
      "area": 25.0
    },
    {
      "name": "94 km S of McCarthy, KM",
      "state": "KM",
      "city": "94 km S of McCarthy",
      "zipcode": null,
      "latitude": 60.587,
      "longitude": -143.018,
      "population": 200000,
      "area": 25.0
    },
    {
      "name": "17 km ENE of Borrego Springs, CA",
      "state": "CA",
      "city": "17 km ENE of Borrego Springs",
      "zipcode": null,
      "latitude": 33.2965,
      "longitude": -116.202,
      "population": 200000,
      "area": 25.0
    },
    {
      "name": "41 km NW of Karluk, KM",
      "state": "KM",
      "city": "41 km NW of Karluk",
      "zipcode": null,
      "latitude": 57.803,
      "longitude": -155.002,
      "population": 200000,
      "area": 25.0
    },
    {
      "name": "24 km NW of Parkfield, CA",
      "state": "CA",
      "city": "24 km NW of Parkfield",
      "zipcode": null,
      "latitude": 36.0525016784668,
      "longitude": -120.615333557129,
      "population": 200000,
      "area": 25.0
    },
    {
      "name": "Fayette, IL",
      "state": "IL",
      "city": "Fayette",
      "zipcode": null,
      "latitude": 38.91,
      "longitude": -88.69,
      "population": 200000,
      "area": 25.0
    },
    {
      "name": "14 km WSW of Searles Valley, CA",
      "state": "CA",
      "city": "14 km WSW of Searles Valley",
      "zipcode": null,
      "latitude": 35.7415,
      "longitude": -117.560666666667,
      "population": 200000,
      "area": 25.0
    },
    {
      "name": "28 km SW of Petersville, KM",
      "state": "KM",
      "city": "28 km SW of Petersville",
      "zipcode": null,
      "latitude": 62.342,
      "longitude": -151.213,
      "population": 200000,
      "area": 25.0
    },
    {
      "name": "17 km E of Little Lake, CA",
      "state": "CA",
      "city": "17 km E of Little Lake",
      "zipcode": null,
      "latitude": 35.9236666666667,
      "longitude": -117.720166666667,
      "population": 200000,
      "area": 25.0
    },
    {
      "name": "16 km ESE of Little Lake, CA",
      "state": "CA",
      "city": "16 km ESE of Little Lake",
      "zipcode": null,
      "latitude": 35.9023333333333,
      "longitude": -117.7385,
      "population": 200000,
      "area": 25.0
    },
    {
      "name": "52 km SSW of Whites City, KM",
      "state": "KM",
      "city": "52 km SSW of Whites City",
      "zipcode": null,
      "latitude": 31.712,
      "longitude": -104.509,
      "population": 200000,
      "area": 25.0
    },
    {
      "name": "58 km NW of Toyah, KM",
      "state": "KM",
      "city": "58 km NW of Toyah",
      "zipcode": null,
      "latitude": 31.653,
      "longitude": -104.269,
      "population": 200000,
      "area": 25.0
    },
    {
      "name": "13 km NE of Little Lake, CA",
      "state": "CA",
      "city": "13 km NE of Little Lake",
      "zipcode": null,
      "latitude": 36.0103333333333,
      "longitude": -117.800333333333,
      "population": 200000,
      "area": 25.0
    },
    {
      "name": "18 km E of Little Lake, CA",
      "state": "CA",
      "city": "18 km E of Little Lake",
      "zipcode": null,
      "latitude": 35.917,
      "longitude": -117.7035,
      "population": 200000,
      "area": 25.0
    },
    {
      "name": "14 km NNW of Trinidad, CA",
      "state": "CA",
      "city": "14 km NNW of Trinidad",
      "zipcode": null,
      "latitude": 41.1788330078125,
      "longitude": -124.185501098633,
      "population": 200000,
      "area": 25.0
    },
    {
      "name": "26 km WNW of Stovepipe Wells, CA",
      "state": "CA",
      "city": "26 km WNW of Stovepipe Wells",
      "zipcode": null,
      "latitude": 36.6578333333333,
      "longitude": -117.428833333333,
      "population": 200000,
      "area": 25.0
    },
    {
      "name": "12 km ESE of Coso Junction, CA",
      "state": "CA",
      "city": "12 km ESE of Coso Junction",
      "zipcode": null,
      "latitude": 36.0225,
      "longitude": -117.816333333333,
      "population": 200000,
      "area": 25.0
    },
    {
      "name": "6 km WSW of Petrolia, CA",
      "state": "CA",
      "city": "6 km WSW of Petrolia",
      "zipcode": null,
      "latitude": 40.3009986877441,
      "longitude": -124.343002319336,
      "population": 200000,
      "area": 25.0
    },
    {
      "name": "46 km W of Cantwell, KM",
      "state": "KM",
      "city": "46 km W of Cantwell",
      "zipcode": null,
      "latitude": 63.428,
      "longitude": -149.883,
      "population": 200000,
      "area": 25.0
    },
    {
      "name": "45 km NW of Ninilchik, KM",
      "state": "KM",
      "city": "45 km NW of Ninilchik",
      "zipcode": null,
      "latitude": 60.291,
      "longitude": -152.323,
      "population": 200000,
      "area": 25.0
    },
    {
      "name": "11 km NE of Eielson Air Force Base, KM",
      "state": "KM",
      "city": "11 km NE of Eielson Air Force Base",
      "zipcode": null,
      "latitude": 64.739,
      "longitude": -146.905,
      "population": 200000,
      "area": 25.0
    },
    {
      "name": "39 km S of Sand Point, KM",
      "state": "KM",
      "city": "39 km S of Sand Point",
      "zipcode": null,
      "latitude": 54.986,
      "longitude": -160.581,
      "population": 200000,
      "area": 25.0
    },
    {
      "name": "61 km WNW of Anchor Point, KM",
      "state": "KM",
      "city": "61 km WNW of Anchor Point",
      "zipcode": null,
      "latitude": 59.937,
      "longitude": -152.885,
      "population": 200000,
      "area": 25.0
    },
    {
      "name": "60 km NNE of Petersville, KM",
      "state": "KM",
      "city": "60 km NNE of Petersville",
      "zipcode": null,
      "latitude": 63.026,
      "longitude": -150.491,
      "population": 200000,
      "area": 25.0
    },
    {
      "name": "115 km N of Yakutat, KM",
      "state": "KM",
      "city": "115 km N of Yakutat",
      "zipcode": null,
      "latitude": 60.584,
      "longitude": -139.891,
      "population": 200000,
      "area": 25.0
    },
    {
      "name": "10 km WSW of Big Lake, KM",
      "state": "KM",
      "city": "10 km WSW of Big Lake",
      "zipcode": null,
      "latitude": 61.481,
      "longitude": -150.139,
      "population": 200000,
      "area": 25.0
    },
    {
      "name": "10 km SSW of Central, KM",
      "state": "KM",
      "city": "10 km SSW of Central",
      "zipcode": null,
      "latitude": 65.479,
      "longitude": -144.863,
      "population": 200000,
      "area": 25.0
    },
    {
      "name": "19 km SSW of Susitna, KM",
      "state": "KM",
      "city": "19 km SSW of Susitna",
      "zipcode": null,
      "latitude": 61.391,
      "longitude": -150.697,
      "population": 200000,
      "area": 25.0
    },
    {
      "name": "31 km NE of Paxson, KM",
      "state": "KM",
      "city": "31 km NE of Paxson",
      "zipcode": null,
      "latitude": 63.296,
      "longitude": -145.179,
      "population": 200000,
      "area": 25.0
    },
    {
      "name": "15 km ENE of Pāhala, KM",
      "state": "KM",
      "city": "15 km ENE of Pāhala",
      "zipcode": null,
      "latitude": 19.2714996337891,
      "longitude": -155.348327636719,
      "population": 200000,
      "area": 25.0
    },
    {
      "name": "21 km ESE of Anza, CA",
      "state": "CA",
      "city": "21 km ESE of Anza",
      "zipcode": null,
      "latitude": 33.4611666666667,
      "longitude": -116.48,
      "population": 200000,
      "area": 25.0
    },
    {
      "name": "49 km W of Mentone, KM",
      "state": "KM",
      "city": "49 km W of Mentone",
      "zipcode": null,
      "latitude": 31.732,
      "longitude": -104.118,
      "population": 200000,
      "area": 25.0
    },
    {
      "name": "82 km ESE of Akutan, KM",
      "state": "KM",
      "city": "82 km ESE of Akutan",
      "zipcode": null,
      "latitude": 53.928,
      "longitude": -164.57,
      "population": 200000,
      "area": 25.0
    },
    {
      "name": "12 km NE of Little Lake, CA",
      "state": "CA",
      "city": "12 km NE of Little Lake",
      "zipcode": null,
      "latitude": 36.0171666666667,
      "longitude": -117.813833333333,
      "population": 200000,
      "area": 25.0
    },
    {
      "name": "46 km E of Chenega, KM",
      "state": "KM",
      "city": "46 km E of Chenega",
      "zipcode": null,
      "latitude": 60.091,
      "longitude": -147.182,
      "population": 200000,
      "area": 25.0
    },
    {
      "name": "47 km NNW of Beluga, KM",
      "state": "KM",
      "city": "47 km NNW of Beluga",
      "zipcode": null,
      "latitude": 61.502,
      "longitude": -151.559,
      "population": 200000,
      "area": 25.0
    },
    {
      "name": "15 km WSW of Searles Valley, CA",
      "state": "CA",
      "city": "15 km WSW of Searles Valley",
      "zipcode": null,
      "latitude": 35.7311666666667,
      "longitude": -117.563666666667,
      "population": 200000,
      "area": 25.0
    },
    {
      "name": "49 km NNE of Aleneva, KM",
      "state": "KM",
      "city": "49 km NNE of Aleneva",
      "zipcode": null,
      "latitude": 58.444,
      "longitude": -152.474,
      "population": 200000,
      "area": 25.0
    },
    {
      "name": "19 km SE of Fox River, KM",
      "state": "KM",
      "city": "19 km SE of Fox River",
      "zipcode": null,
      "latitude": 59.722,
      "longitude": -150.738,
      "population": 200000,
      "area": 25.0
    },
    {
      "name": "7 km E of Fortuna, CA",
      "state": "CA",
      "city": "7 km E of Fortuna",
      "zipcode": null,
      "latitude": 40.6066665649414,
      "longitude": -124.078834533691,
      "population": 200000,
      "area": 25.0
    },
    {
      "name": "66 km ENE of Pedro Bay, KM",
      "state": "KM",
      "city": "66 km ENE of Pedro Bay",
      "zipcode": null,
      "latitude": 60.0406666666667,
      "longitude": -153.0345,
      "population": 200000,
      "area": 25.0
    },
    {
      "name": "41 km S of Port Graham, KM",
      "state": "KM",
      "city": "41 km S of Port Graham",
      "zipcode": null,
      "latitude": 58.983,
      "longitude": -151.882,
      "population": 200000,
      "area": 25.0
    },
    {
      "name": "36 km S of Silver Peak, KM",
      "state": "KM",
      "city": "36 km S of Silver Peak",
      "zipcode": null,
      "latitude": 37.4287,
      "longitude": -117.6486,
      "population": 200000,
      "area": 25.0
    },
    {
      "name": "21 km ESE of Little Lake, CA",
      "state": "CA",
      "city": "21 km ESE of Little Lake",
      "zipcode": null,
      "latitude": 35.8578333333333,
      "longitude": -117.689333333333,
      "population": 200000,
      "area": 25.0
    },
    {
      "name": "65 km W of Akhiok, KM",
      "state": "KM",
      "city": "65 km W of Akhiok",
      "zipcode": null,
      "latitude": 56.955,
      "longitude": -155.241,
      "population": 200000,
      "area": 25.0
    },
    {
      "name": "13 km W of Searles Valley, CA",
      "state": "CA",
      "city": "13 km W of Searles Valley",
      "zipcode": null,
      "latitude": 35.7736666666667,
      "longitude": -117.5465,
      "population": 200000,
      "area": 25.0
    },
    {
      "name": "6 km SW of Napavine, KM",
      "state": "KM",
      "city": "6 km SW of Napavine",
      "zipcode": null,
      "latitude": 46.54333333333334,
      "longitude": -122.9745,
      "population": 200000,
      "area": 25.0
    },
    {
      "name": "63 km ENE of Pedro Bay, KM",
      "state": "KM",
      "city": "63 km ENE of Pedro Bay",
      "zipcode": null,
      "latitude": 60.0256666666667,
      "longitude": -153.0835,
      "population": 200000,
      "area": 25.0
    },
    {
      "name": "72 km WSW of False Pass, KM",
      "state": "KM",
      "city": "72 km WSW of False Pass",
      "zipcode": null,
      "latitude": 54.5685,
      "longitude": -164.4185,
      "population": 200000,
      "area": 25.0
    },
    {
      "name": "83 km NNW of Karluk, KM",
      "state": "KM",
      "city": "83 km NNW of Karluk",
      "zipcode": null,
      "latitude": 58.2443333333333,
      "longitude": -155.058166666667,
      "population": 200000,
      "area": 25.0
    },
    {
      "name": "14 km ENE of Pāhala, KM",
      "state": "KM",
      "city": "14 km ENE of Pāhala",
      "zipcode": null,
      "latitude": 19.2683334350586,
      "longitude": -155.355163574219,
      "population": 200000,
      "area": 25.0
    },
    {
      "name": "16 km NNE of Hermleigh, KM",
      "state": "KM",
      "city": "16 km NNE of Hermleigh",
      "zipcode": null,
      "latitude": 32.767,
      "longitude": -100.674,
      "population": 200000,
      "area": 25.0
    },
    {
      "name": "44 km NW of Toyah, KM",
      "state": "KM",
      "city": "44 km NW of Toyah",
      "zipcode": null,
      "latitude": 31.546,
      "longitude": -104.172,
      "population": 200000,
      "area": 25.0
    },
    {
      "name": "92 km SSE of Sand Point, KM",
      "state": "KM",
      "city": "92 km SSE of Sand Point",
      "zipcode": null,
      "latitude": 54.549,
      "longitude": -160.058,
      "population": 200000,
      "area": 25.0
    },
    {
      "name": "100 km N of Yakutat, KM",
      "state": "KM",
      "city": "100 km N of Yakutat",
      "zipcode": null,
      "latitude": 60.446,
      "longitude": -139.529,
      "population": 200000,
      "area": 25.0
    },
    {
      "name": "16 km E of Happy Valley, KM",
      "state": "KM",
      "city": "16 km E of Happy Valley",
      "zipcode": null,
      "latitude": 59.944,
      "longitude": -151.436,
      "population": 200000,
      "area": 25.0
    },
    {
      "name": "14 km WNW of Ivanof Bay, KM",
      "state": "KM",
      "city": "14 km WNW of Ivanof Bay",
      "zipcode": null,
      "latitude": 55.929,
      "longitude": -159.713,
      "population": 200000,
      "area": 25.0
    },
    {
      "name": "31 km E of Honaunau-Napoopoo, KM",
      "state": "KM",
      "city": "31 km E of Honaunau-Napoopoo",
      "zipcode": null,
      "latitude": 19.4881666666667,
      "longitude": -155.566666666667,
      "population": 200000,
      "area": 25.0
    },
    {
      "name": "10 km WSW of Ivanof Bay, KM",
      "state": "KM",
      "city": "10 km WSW of Ivanof Bay",
      "zipcode": null,
      "latitude": 55.8785,
      "longitude": -159.639333333333,
      "population": 200000,
      "area": 25.0
    },
    {
      "name": "30 km NNE of Chase, KM",
      "state": "KM",
      "city": "30 km NNE of Chase",
      "zipcode": null,
      "latitude": 62.688,
      "longitude": -149.8,
      "population": 200000,
      "area": 25.0
    },
    {
      "name": "65 km ESE of Pedro Bay, KM",
      "state": "KM",
      "city": "65 km ESE of Pedro Bay",
      "zipcode": null,
      "latitude": 59.545,
      "longitude": -153.046,
      "population": 200000,
      "area": 25.0
    },
    {
      "name": "46 km SE of Bettles, KM",
      "state": "KM",
      "city": "46 km SE of Bettles",
      "zipcode": null,
      "latitude": 66.681,
      "longitude": -150.631,
      "population": 200000,
      "area": 25.0
    },
    {
      "name": "56 km ENE of Pedro Bay, KM",
      "state": "KM",
      "city": "56 km ENE of Pedro Bay",
      "zipcode": null,
      "latitude": 60.003,
      "longitude": -153.183833333333,
      "population": 200000,
      "area": 25.0
    },
    {
      "name": "126 km S of McCarthy, KM",
      "state": "KM",
      "city": "126 km S of McCarthy",
      "zipcode": null,
      "latitude": 60.301,
      "longitude": -143.129,
      "population": 200000,
      "area": 25.0
    },
    {
      "name": "18 km NNW of Sheridan, KM",
      "state": "KM",
      "city": "18 km NNW of Sheridan",
      "zipcode": null,
      "latitude": 45.26116666666667,
      "longitude": -123.44216666666667,
      "population": 200000,
      "area": 25.0
    },
    {
      "name": "15 km ESE of Myrtle Point, KM",
      "state": "KM",
      "city": "15 km ESE of Myrtle Point",
      "zipcode": null,
      "latitude": 43.0045,
      "longitude": -123.965,
      "population": 200000,
      "area": 25.0
    },
    {
      "name": "51 km SSW of Cantwell, KM",
      "state": "KM",
      "city": "51 km SSW of Cantwell",
      "zipcode": null,
      "latitude": 62.964,
      "longitude": -149.331,
      "population": 200000,
      "area": 25.0
    },
    {
      "name": "20 km W of Ivanof Bay, KM",
      "state": "KM",
      "city": "20 km W of Ivanof Bay",
      "zipcode": null,
      "latitude": 55.8731666666667,
      "longitude": -159.811333333333,
      "population": 200000,
      "area": 25.0
    },
    {
      "name": "54 km WNW of Ninilchik, KM",
      "state": "KM",
      "city": "54 km WNW of Ninilchik",
      "zipcode": null,
      "latitude": 60.195,
      "longitude": -152.602,
      "population": 200000,
      "area": 25.0
    },
    {
      "name": "76 km NW of Ninilchik, KM",
      "state": "KM",
      "city": "76 km NW of Ninilchik",
      "zipcode": null,
      "latitude": 60.491,
      "longitude": -152.73,
      "population": 200000,
      "area": 25.0
    },
    {
      "name": "75 km SE of Akutan, KM",
      "state": "KM",
      "city": "75 km SE of Akutan",
      "zipcode": null,
      "latitude": 53.626,
      "longitude": -165.0106,
      "population": 200000,
      "area": 25.0
    },
    {
      "name": "18 km NNW of McCleary, KM",
      "state": "KM",
      "city": "18 km NNW of McCleary",
      "zipcode": null,
      "latitude": 47.209666666666664,
      "longitude": -123.35833333333333,
      "population": 200000,
      "area": 25.0
    },
    {
      "name": "43 km WNW of Happy Valley, KM",
      "state": "KM",
      "city": "43 km WNW of Happy Valley",
      "zipcode": null,
      "latitude": 60.083,
      "longitude": -152.472,
      "population": 200000,
      "area": 25.0
    },
    {
      "name": "22 km ESE of Clam Gulch, KM",
      "state": "KM",
      "city": "22 km ESE of Clam Gulch",
      "zipcode": null,
      "latitude": 60.184,
      "longitude": -150.991,
      "population": 200000,
      "area": 25.0
    },
    {
      "name": "20 km WNW of Susitna, KM",
      "state": "KM",
      "city": "20 km WNW of Susitna",
      "zipcode": null,
      "latitude": 61.644,
      "longitude": -150.846,
      "population": 200000,
      "area": 25.0
    },
    {
      "name": "54 km SSW of Sand Point, KM",
      "state": "KM",
      "city": "54 km SSW of Sand Point",
      "zipcode": null,
      "latitude": 54.875,
      "longitude": -160.808,
      "population": 200000,
      "area": 25.0
    },
    {
      "name": "17 km ESE of Little Lake, CA",
      "state": "CA",
      "city": "17 km ESE of Little Lake",
      "zipcode": null,
      "latitude": 35.891,
      "longitude": -117.722333333333,
      "population": 200000,
      "area": 25.0
    },
    {
      "name": "64 km E of Port Alsworth, KM",
      "state": "KM",
      "city": "64 km E of Port Alsworth",
      "zipcode": null,
      "latitude": 60.228,
      "longitude": -153.147,
      "population": 200000,
      "area": 25.0
    },
    {
      "name": "2 km E of Sabana Grande, KM",
      "state": "KM",
      "city": "2 km E of Sabana Grande",
      "zipcode": null,
      "latitude": 18.0766666666667,
      "longitude": -66.9373333333333,
      "population": 200000,
      "area": 25.0
    },
    {
      "name": "89 km SSE of Kokhanok, KM",
      "state": "KM",
      "city": "89 km SSE of Kokhanok",
      "zipcode": null,
      "latitude": 58.765,
      "longitude": -153.92,
      "population": 200000,
      "area": 25.0
    },
    {
      "name": "70 km WSW of Akhiok, KM",
      "state": "KM",
      "city": "70 km WSW of Akhiok",
      "zipcode": null,
      "latitude": 56.744,
      "longitude": -155.267,
      "population": 200000,
      "area": 25.0
    },
    {
      "name": "62 km SSW of Whites City, KM",
      "state": "KM",
      "city": "62 km SSW of Whites City",
      "zipcode": null,
      "latitude": 31.624,
      "longitude": -104.525,
      "population": 200000,
      "area": 25.0
    },
    {
      "name": "14 km NNE of Ashford, KM",
      "state": "KM",
      "city": "14 km NNE of Ashford",
      "zipcode": null,
      "latitude": 46.86816666666667,
      "longitude": -121.93716666666667,
      "population": 200000,
      "area": 25.0
    },
    {
      "name": "Lawrence, IL",
      "state": "IL",
      "city": "Lawrence",
      "zipcode": null,
      "latitude": 38.85,
      "longitude": -87.86,
      "population": 200000,
      "area": 25.0
    },
    {
      "name": "IN; Martin, IN",
      "state": "IN",
      "city": "IN; Martin",
      "zipcode": null,
      "latitude": 38.51,
      "longitude": -87.65,
      "population": 200000,
      "area": 25.0
    },
    {
      "name": "Jackson",
      "state": "US",
      "city": "Jackson",
      "zipcode": null,
      "latitude": 43.631,
      "longitude": -101.3950833,
      "population": 200000,
      "area": 25.0
    },
    {
      "name": "Becker",
      "state": "US",
      "city": "Becker",
      "zipcode": null,
      "latitude": 47.020535,
      "longitude": -95.912189,
      "population": 200000,
      "area": 25.0
    },
    {
      "name": "Sherburne",
      "state": "US",
      "city": "Sherburne",
      "zipcode": null,
      "latitude": 45.525011,
      "longitude": -93.683986,
      "population": 200000,
      "area": 25.0
    },
    {
      "name": "IN; Posey, IN",
      "state": "IN",
      "city": "IN; Posey",
      "zipcode": null,
      "latitude": 38.16,
      "longitude": -87.99,
      "population": 200000,
      "area": 25.0
    },
    {
      "name": "Lac qui Parle",
      "state": "US",
      "city": "Lac qui Parle",
      "zipcode": null,
      "latitude": 45.226197,
      "longitude": -96.339308,
      "population": 200000,
      "area": 25.0
    },
    {
      "name": "Sully",
      "state": "US",
      "city": "Sully",
      "zipcode": null,
      "latitude": 44.65,
      "longitude": -99.7361111,
      "population": 200000,
      "area": 25.0
    },
    {
      "name": "Price",
      "state": "US",
      "city": "Price",
      "zipcode": null,
      "latitude": 45.7851589,
      "longitude": -90.6275479,
      "population": 200000,
      "area": 25.0
    },
    {
      "name": "Bath",
      "state": "US",
      "city": "Bath",
      "zipcode": null,
      "latitude": 37.9668,
      "longitude": -79.790533,
      "population": 200000,
      "area": 25.0
    },
    {
      "name": "52 km W of Happy Valley, KM",
      "state": "KM",
      "city": "52 km W of Happy Valley",
      "zipcode": null,
      "latitude": 60.033,
      "longitude": -152.648,
      "population": 200000,
      "area": 25.0
    },
    {
      "name": "21 km N of Borrego Springs, CA",
      "state": "CA",
      "city": "21 km N of Borrego Springs",
      "zipcode": null,
      "latitude": 33.4468333333333,
      "longitude": -116.402,
      "population": 200000,
      "area": 25.0
    },
    {
      "name": "34 km E of West Yellowstone, KM",
      "state": "KM",
      "city": "34 km E of West Yellowstone",
      "zipcode": null,
      "latitude": 44.6268333333333,
      "longitude": -110.6695,
      "population": 200000,
      "area": 25.0
    },
    {
      "name": "69 km WSW of Nanwalek, KM",
      "state": "KM",
      "city": "69 km WSW of Nanwalek",
      "zipcode": null,
      "latitude": 59.079,
      "longitude": -153.018,
      "population": 200000,
      "area": 25.0
    },
    {
      "name": "2 km SSW of Pāhala, KM",
      "state": "KM",
      "city": "2 km SSW of Pāhala",
      "zipcode": null,
      "latitude": 19.1800003051758,
      "longitude": -155.491333007812,
      "population": 200000,
      "area": 25.0
    },
    {
      "name": "30 km N of Amboy, KM",
      "state": "KM",
      "city": "30 km N of Amboy",
      "zipcode": null,
      "latitude": 46.179833333333335,
      "longitude": -122.51183333333333,
      "population": 200000,
      "area": 25.0
    },
    {
      "name": "65 km ENE of Pedro Bay, KM",
      "state": "KM",
      "city": "65 km ENE of Pedro Bay",
      "zipcode": null,
      "latitude": 60.053,
      "longitude": -153.056666666667,
      "population": 200000,
      "area": 25.0
    },
    {
      "name": "80 km NW of Ninilchik, KM",
      "state": "KM",
      "city": "80 km NW of Ninilchik",
      "zipcode": null,
      "latitude": 60.5183333333333,
      "longitude": -152.7885,
      "population": 200000,
      "area": 25.0
    },
    {
      "name": "110 km N of Yakutat, KM",
      "state": "KM",
      "city": "110 km N of Yakutat",
      "zipcode": null,
      "latitude": 60.534,
      "longitude": -139.958,
      "population": 200000,
      "area": 25.0
    },
    {
      "name": "40 km WNW of Valdez, KM",
      "state": "KM",
      "city": "40 km WNW of Valdez",
      "zipcode": null,
      "latitude": 61.227,
      "longitude": -147.075,
      "population": 200000,
      "area": 25.0
    },
    {
      "name": "57 km WNW of Ninilchik, KM",
      "state": "KM",
      "city": "57 km WNW of Ninilchik",
      "zipcode": null,
      "latitude": 60.174,
      "longitude": -152.679,
      "population": 200000,
      "area": 25.0
    },
    {
      "name": "27 km WSW of Ackerly, KM",
      "state": "KM",
      "city": "27 km WSW of Ackerly",
      "zipcode": null,
      "latitude": 32.471,
      "longitude": -102.006,
      "population": 200000,
      "area": 25.0
    },
    {
      "name": "22 km WNW of Volcano, KM",
      "state": "KM",
      "city": "22 km WNW of Volcano",
      "zipcode": null,
      "latitude": 19.4913330078125,
      "longitude": -155.437164306641,
      "population": 200000,
      "area": 25.0
    },
    {
      "name": "5 km SSE of Houston, KM",
      "state": "KM",
      "city": "5 km SSE of Houston",
      "zipcode": null,
      "latitude": 61.586,
      "longitude": -149.762,
      "population": 200000,
      "area": 25.0
    },
    {
      "name": "58 km S of Whites City, KM",
      "state": "KM",
      "city": "58 km S of Whites City",
      "zipcode": null,
      "latitude": 31.647,
      "longitude": -104.351,
      "population": 200000,
      "area": 25.0
    },
    {
      "name": "13 km NW of Cliffdell, KM",
      "state": "KM",
      "city": "13 km NW of Cliffdell",
      "zipcode": null,
      "latitude": 47.03033333333333,
      "longitude": -121.20166666666667,
      "population": 200000,
      "area": 25.0
    },
    {
      "name": "34 km NNE of Chenega, KM",
      "state": "KM",
      "city": "34 km NNE of Chenega",
      "zipcode": null,
      "latitude": 60.355,
      "longitude": -147.772,
      "population": 200000,
      "area": 25.0
    },
    {
      "name": "9 km SSE of Perryville, KM",
      "state": "KM",
      "city": "9 km SSE of Perryville",
      "zipcode": null,
      "latitude": 55.834,
      "longitude": -159.071,
      "population": 200000,
      "area": 25.0
    },
    {
      "name": "85 km NNW of Alatna, KM",
      "state": "KM",
      "city": "85 km NNW of Alatna",
      "zipcode": null,
      "latitude": 67.224,
      "longitude": -153.678,
      "population": 200000,
      "area": 25.0
    },
    {
      "name": "50 km SSE of Whites City, KM",
      "state": "KM",
      "city": "50 km SSE of Whites City",
      "zipcode": null,
      "latitude": 31.763,
      "longitude": -104.15,
      "population": 200000,
      "area": 25.0
    },
    {
      "name": "7 km ESE of Big Spring, KM",
      "state": "KM",
      "city": "7 km ESE of Big Spring",
      "zipcode": null,
      "latitude": 32.222,
      "longitude": -101.409,
      "population": 200000,
      "area": 25.0
    },
    {
      "name": "6 km WSW of Fuig, KM",
      "state": "KM",
      "city": "6 km WSW of Fuig",
      "zipcode": null,
      "latitude": 17.969,
      "longitude": -66.9755,
      "population": 200000,
      "area": 25.0
    },
    {
      "name": "21 km ESE of Livengood, KM",
      "state": "KM",
      "city": "21 km ESE of Livengood",
      "zipcode": null,
      "latitude": 65.425,
      "longitude": -148.148,
      "population": 200000,
      "area": 25.0
    },
    {
      "name": "15 km N of Sterling, KM",
      "state": "KM",
      "city": "15 km N of Sterling",
      "zipcode": null,
      "latitude": 60.677,
      "longitude": -150.79,
      "population": 200000,
      "area": 25.0
    },
    {
      "name": "3 km E of Mirrormont, KM",
      "state": "KM",
      "city": "3 km E of Mirrormont",
      "zipcode": null,
      "latitude": 47.4625,
      "longitude": -121.94666666666667,
      "population": 200000,
      "area": 25.0
    },
    {
      "name": "42 km SE of Denali National Park, KM",
      "state": "KM",
      "city": "42 km SE of Denali National Park",
      "zipcode": null,
      "latitude": 63.28,
      "longitude": -151.098,
      "population": 200000,
      "area": 25.0
    },
    {
      "name": "8 km SSE of Mammoth Lakes, CA",
      "state": "CA",
      "city": "8 km SSE of Mammoth Lakes",
      "zipcode": null,
      "latitude": 37.5758323669434,
      "longitude": -118.940330505371,
      "population": 200000,
      "area": 25.0
    },
    {
      "name": "Clinch",
      "state": "US",
      "city": "Clinch",
      "zipcode": "33130",
      "latitude": 30.7563889,
      "longitude": -82.7680556,
      "population": 200000,
      "area": 25.0
    },
    {
      "name": "Cherokee",
      "state": "US",
      "city": "Cherokee",
      "zipcode": null,
      "latitude": 31.56589,
      "longitude": -95.10404,
      "population": 200000,
      "area": 25.0
    },
    {
      "name": "Trinity",
      "state": "US",
      "city": "Trinity",
      "zipcode": null,
      "latitude": 31.0137,
      "longitude": -95.2677,
      "population": 200000,
      "area": 25.0
    },
    {
      "name": "Van Buren",
      "state": "US",
      "city": "Van Buren",
      "zipcode": null,
      "latitude": 35.5865604,
      "longitude": -92.62707719,
      "population": 200000,
      "area": 25.0
    },
    {
      "name": "Vernon",
      "state": "US",
      "city": "Vernon",
      "zipcode": null,
      "latitude": 31.062467,
      "longitude": -93.157417,
      "population": 200000,
      "area": 25.0
    },
    {
      "name": "62 km WNW of Anchor Point, KM",
      "state": "KM",
      "city": "62 km WNW of Anchor Point",
      "zipcode": null,
      "latitude": 59.991,
      "longitude": -152.872,
      "population": 200000,
      "area": 25.0
    },
    {
      "name": "49 km E of Pedro Bay, KM",
      "state": "KM",
      "city": "49 km E of Pedro Bay",
      "zipcode": null,
      "latitude": 59.876,
      "longitude": -153.245,
      "population": 200000,
      "area": 25.0
    },
    {
      "name": "46 km ENE of Cantwell, KM",
      "state": "KM",
      "city": "46 km ENE of Cantwell",
      "zipcode": null,
      "latitude": 63.518,
      "longitude": -148.06,
      "population": 200000,
      "area": 25.0
    },
    {
      "name": "13 km WSW of Ferndale, CA",
      "state": "CA",
      "city": "13 km WSW of Ferndale",
      "zipcode": null,
      "latitude": 40.5364990234375,
      "longitude": -124.40650177002,
      "population": 200000,
      "area": 25.0
    },
    {
      "name": "24 km NNW of Toyah, KM",
      "state": "KM",
      "city": "24 km NNW of Toyah",
      "zipcode": null,
      "latitude": 31.514,
      "longitude": -103.895,
      "population": 200000,
      "area": 25.0
    },
    {
      "name": "12 km E of Pāhala, KM",
      "state": "KM",
      "city": "12 km E of Pāhala",
      "zipcode": null,
      "latitude": 19.1968326568604,
      "longitude": -155.358001708984,
      "population": 200000,
      "area": 25.0
    },
    {
      "name": "57 km SW of Cantwell, KM",
      "state": "KM",
      "city": "57 km SW of Cantwell",
      "zipcode": null,
      "latitude": 63.039,
      "longitude": -149.775,
      "population": 200000,
      "area": 25.0
    },
    {
      "name": "21 km NE of Minto, KM",
      "state": "KM",
      "city": "21 km NE of Minto",
      "zipcode": null,
      "latitude": 65.261,
      "longitude": -148.979,
      "population": 200000,
      "area": 25.0
    },
    {
      "name": "5 km SE of Maria Antonia, KM",
      "state": "KM",
      "city": "5 km SE of Maria Antonia",
      "zipcode": null,
      "latitude": 17.9395,
      "longitude": -66.8563333333333,
      "population": 200000,
      "area": 25.0
    },
    {
      "name": "10 km SSW of Hunnewell, KM",
      "state": "KM",
      "city": "10 km SSW of Hunnewell",
      "zipcode": null,
      "latitude": 36.91558456,
      "longitude": -97.45709229,
      "population": 200000,
      "area": 25.0
    },
    {
      "name": "15 km NNW of Wai‘ōhinu, KM",
      "state": "KM",
      "city": "15 km NNW of Wai‘ōhinu",
      "zipcode": null,
      "latitude": 19.1895008087158,
      "longitude": -155.686828613281,
      "population": 200000,
      "area": 25.0
    },
    {
      "name": "48 km NW of Toyah, KM",
      "state": "KM",
      "city": "48 km NW of Toyah",
      "zipcode": null,
      "latitude": 31.574,
      "longitude": -104.199,
      "population": 200000,
      "area": 25.0
    },
    {
      "name": "22 km ESE of Little Lake, CA",
      "state": "CA",
      "city": "22 km ESE of Little Lake",
      "zipcode": null,
      "latitude": 35.847,
      "longitude": -117.687,
      "population": 200000,
      "area": 25.0
    },
    {
      "name": "14 km ESE of Pāhala, KM",
      "state": "KM",
      "city": "14 km ESE of Pāhala",
      "zipcode": null,
      "latitude": 19.1681671142578,
      "longitude": -155.347839355469,
      "population": 200000,
      "area": 25.0
    },
    {
      "name": "MO; Newton, MO",
      "state": "MO",
      "city": "MO; Newton",
      "zipcode": null,
      "latitude": 37.0,
      "longitude": -94.62,
      "population": 200000,
      "area": 25.0
    },
    {
      "name": "63 km S of Glacier View, KM",
      "state": "KM",
      "city": "63 km S of Glacier View",
      "zipcode": null,
      "latitude": 61.238,
      "longitude": -147.668,
      "population": 200000,
      "area": 25.0
    },
    {
      "name": "31 km ENE of Fort Davis, KM",
      "state": "KM",
      "city": "31 km ENE of Fort Davis",
      "zipcode": null,
      "latitude": 30.711,
      "longitude": -103.595,
      "population": 200000,
      "area": 25.0
    },
    {
      "name": "25 km ENE of Ashford, KM",
      "state": "KM",
      "city": "25 km ENE of Ashford",
      "zipcode": null,
      "latitude": 46.86533333333333,
      "longitude": -121.7325,
      "population": 200000,
      "area": 25.0
    },
    {
      "name": "59 km SE of Denali National Park, KM",
      "state": "KM",
      "city": "59 km SE of Denali National Park",
      "zipcode": null,
      "latitude": 63.166,
      "longitude": -150.884,
      "population": 200000,
      "area": 25.0
    },
    {
      "name": "12 km SSE of Stanton, KM",
      "state": "KM",
      "city": "12 km SSE of Stanton",
      "zipcode": null,
      "latitude": 32.02,
      "longitude": -101.745,
      "population": 200000,
      "area": 25.0
    },
    {
      "name": "20 km S of Indios, KM",
      "state": "KM",
      "city": "20 km S of Indios",
      "zipcode": null,
      "latitude": 17.8081666666667,
      "longitude": -66.8033333333333,
      "population": 200000,
      "area": 25.0
    },
    {
      "name": "Benton, MO",
      "state": "MO",
      "city": "Benton",
      "zipcode": null,
      "latitude": 38.07,
      "longitude": -93.5,
      "population": 200000,
      "area": 25.0
    },
    {
      "name": "41 km SE of Denali National Park, KM",
      "state": "KM",
      "city": "41 km SE of Denali National Park",
      "zipcode": null,
      "latitude": 63.299,
      "longitude": -151.093,
      "population": 200000,
      "area": 25.0
    },
    {
      "name": "8 km SW of Volcano, KM",
      "state": "KM",
      "city": "8 km SW of Volcano",
      "zipcode": null,
      "latitude": 19.3838333333333,
      "longitude": -155.2795,
      "population": 200000,
      "area": 25.0
    },
    {
      "name": "44 km ENE of Warm River, KM",
      "state": "KM",
      "city": "44 km ENE of Warm River",
      "zipcode": null,
      "latitude": 44.2483333333333,
      "longitude": -110.796666666667,
      "population": 200000,
      "area": 25.0
    },
    {
      "name": "23 km WNW of Cantwell, KM",
      "state": "KM",
      "city": "23 km WNW of Cantwell",
      "zipcode": null,
      "latitude": 63.45,
      "longitude": -149.41,
      "population": 200000,
      "area": 25.0
    },
    {
      "name": "32 km SW of Sand Point, KM",
      "state": "KM",
      "city": "32 km SW of Sand Point",
      "zipcode": null,
      "latitude": 55.135,
      "longitude": -160.875,
      "population": 200000,
      "area": 25.0
    },
    {
      "name": "9 km NE of Pāhala, KM",
      "state": "KM",
      "city": "9 km NE of Pāhala",
      "zipcode": null,
      "latitude": 19.2565002441406,
      "longitude": -155.40283203125,
      "population": 200000,
      "area": 25.0
    },
    {
      "name": "62 km WNW of Tyonek, KM",
      "state": "KM",
      "city": "62 km WNW of Tyonek",
      "zipcode": null,
      "latitude": 61.212,
      "longitude": -152.258,
      "population": 200000,
      "area": 25.0
    },
    {
      "name": "14 km SE of Fern Forest, KM",
      "state": "KM",
      "city": "14 km SE of Fern Forest",
      "zipcode": null,
      "latitude": 19.3705005645752,
      "longitude": -155.034164428711,
      "population": 200000,
      "area": 25.0
    },
    {
      "name": "Big Stone",
      "state": "US",
      "city": "Big Stone",
      "zipcode": null,
      "latitude": 45.46325,
      "longitude": -96.271767,
      "population": 200000,
      "area": 25.0
    },
    {
      "name": "19 km SW of Jal, KM",
      "state": "KM",
      "city": "19 km SW of Jal",
      "zipcode": null,
      "latitude": 31.973,
      "longitude": -103.32,
      "population": 200000,
      "area": 25.0
    },
    {
      "name": "20 km SW of Jal, KM",
      "state": "KM",
      "city": "20 km SW of Jal",
      "zipcode": null,
      "latitude": 31.966,
      "longitude": -103.332,
      "population": 200000,
      "area": 25.0
    },
    {
      "name": "10 km WSW of Stanton, KM",
      "state": "KM",
      "city": "10 km WSW of Stanton",
      "zipcode": null,
      "latitude": 32.099,
      "longitude": -101.898,
      "population": 200000,
      "area": 25.0
    },
    {
      "name": "Torrance",
      "state": "US",
      "city": "Torrance",
      "zipcode": null,
      "latitude": 34.643232,
      "longitude": -105.416063,
      "population": 200000,
      "area": 25.0
    },
    {
      "name": "IL; Marion, MO",
      "state": "MO",
      "city": "IL; Marion",
      "zipcode": null,
      "latitude": 39.83,
      "longitude": -91.48,
      "population": 200000,
      "area": 25.0
    },
    {
      "name": "Franklin",
      "state": "US",
      "city": "Franklin",
      "zipcode": null,
      "latitude": 31.419,
      "longitude": -91.013,
      "population": 200000,
      "area": 25.0
    },
    {
      "name": "11 km W of Forsan, KM",
      "state": "KM",
      "city": "11 km W of Forsan",
      "zipcode": null,
      "latitude": 32.096,
      "longitude": -101.486,
      "population": 200000,
      "area": 25.0
    },
    {
      "name": "8 km ESE of Susitna North, KM",
      "state": "KM",
      "city": "8 km ESE of Susitna North",
      "zipcode": null,
      "latitude": 62.139,
      "longitude": -149.699,
      "population": 200000,
      "area": 25.0
    },
    {
      "name": "28 km N of Beluga, KM",
      "state": "KM",
      "city": "28 km N of Beluga",
      "zipcode": null,
      "latitude": 61.394,
      "longitude": -150.999,
      "population": 200000,
      "area": 25.0
    },
    {
      "name": "57 km WNW of Nikiski, KM",
      "state": "KM",
      "city": "57 km WNW of Nikiski",
      "zipcode": null,
      "latitude": 60.903,
      "longitude": -152.26,
      "population": 200000,
      "area": 25.0
    },
    {
      "name": "30 km SW of Cantwell, KM",
      "state": "KM",
      "city": "30 km SW of Cantwell",
      "zipcode": null,
      "latitude": 63.168,
      "longitude": -149.309,
      "population": 200000,
      "area": 25.0
    },
    {
      "name": "60 km S of Whites City, KM",
      "state": "KM",
      "city": "60 km S of Whites City",
      "zipcode": null,
      "latitude": 31.635,
      "longitude": -104.44,
      "population": 200000,
      "area": 25.0
    },
    {
      "name": "12 km S of Guánica, KM",
      "state": "KM",
      "city": "12 km S of Guánica",
      "zipcode": null,
      "latitude": 17.8588333333333,
      "longitude": -66.8858333333333,
      "population": 200000,
      "area": 25.0
    },
    {
      "name": "18 km SW of Jal, KM",
      "state": "KM",
      "city": "18 km SW of Jal",
      "zipcode": null,
      "latitude": 31.983,
      "longitude": -103.324,
      "population": 200000,
      "area": 25.0
    },
    {
      "name": "13 km N of Garrochales, KM",
      "state": "KM",
      "city": "13 km N of Garrochales",
      "zipcode": null,
      "latitude": 18.5736666666667,
      "longitude": -66.5901666666667,
      "population": 200000,
      "area": 25.0
    },
    {
      "name": "San Augustine",
      "state": "US",
      "city": "San Augustine",
      "zipcode": null,
      "latitude": 31.276467,
      "longitude": -94.302133,
      "population": 200000,
      "area": 25.0
    },
    {
      "name": "45 km SSE of Nelchina, KM",
      "state": "KM",
      "city": "45 km SSE of Nelchina",
      "zipcode": null,
      "latitude": 61.626,
      "longitude": -146.372,
      "population": 200000,
      "area": 25.0
    },
    {
      "name": "47 km NE of Whittier, KM",
      "state": "KM",
      "city": "47 km NE of Whittier",
      "zipcode": null,
      "latitude": 61.112,
      "longitude": -148.139,
      "population": 200000,
      "area": 25.0
    },
    {
      "name": "45 km SSW of Cantwell, KM",
      "state": "KM",
      "city": "45 km SSW of Cantwell",
      "zipcode": null,
      "latitude": 62.999,
      "longitude": -149.179,
      "population": 200000,
      "area": 25.0
    },
    {
      "name": "42 km WSW of Tatitlek, KM",
      "state": "KM",
      "city": "42 km WSW of Tatitlek",
      "zipcode": null,
      "latitude": 60.665,
      "longitude": -147.343,
      "population": 200000,
      "area": 25.0
    },
    {
      "name": "2 km SW of Río Lajas, KM",
      "state": "KM",
      "city": "2 km SW of Río Lajas",
      "zipcode": null,
      "latitude": 18.3803,
      "longitude": -66.2871,
      "population": 200000,
      "area": 25.0
    },
    {
      "name": "Hansford",
      "state": "US",
      "city": "Hansford",
      "zipcode": null,
      "latitude": 36.2416667,
      "longitude": -101.5497222,
      "population": 200000,
      "area": 25.0
    },
    {
      "name": "Texas",
      "state": "US",
      "city": "Texas",
      "zipcode": null,
      "latitude": 36.8186111,
      "longitude": -101.7577778,
      "population": 200000,
      "area": 25.0
    },
    {
      "name": "Beaver",
      "state": "US",
      "city": "Beaver",
      "zipcode": null,
      "latitude": 36.7338889,
      "longitude": -100.7680556,
      "population": 200000,
      "area": 25.0
    },
    {
      "name": "50 km S of Glacier View, KM",
      "state": "KM",
      "city": "50 km S of Glacier View",
      "zipcode": null,
      "latitude": 61.361,
      "longitude": -147.483,
      "population": 200000,
      "area": 25.0
    },
    {
      "name": "54 km NNE of Petersville, KM",
      "state": "KM",
      "city": "54 km NNE of Petersville",
      "zipcode": null,
      "latitude": 62.973,
      "longitude": -150.495,
      "population": 200000,
      "area": 25.0
    },
    {
      "name": "11 km SSE of Volcano, KM",
      "state": "KM",
      "city": "11 km SSE of Volcano",
      "zipcode": null,
      "latitude": 19.34,
      "longitude": -155.198333333333,
      "population": 200000,
      "area": 25.0
    },
    {
      "name": "11 km S of Trapper Creek, KM",
      "state": "KM",
      "city": "11 km S of Trapper Creek",
      "zipcode": null,
      "latitude": 62.21,
      "longitude": -150.247,
      "population": 200000,
      "area": 25.0
    },
    {
      "name": "59 km S of Whites City, KM",
      "state": "KM",
      "city": "59 km S of Whites City",
      "zipcode": null,
      "latitude": 31.641,
      "longitude": -104.397,
      "population": 200000,
      "area": 25.0
    },
    {
      "name": "Wayne",
      "state": "US",
      "city": "Wayne",
      "zipcode": null,
      "latitude": 31.5038,
      "longitude": -88.6813,
      "population": 200000,
      "area": 25.0
    },
    {
      "name": "Scott",
      "state": "US",
      "city": "Scott",
      "zipcode": null,
      "latitude": 32.3809,
      "longitude": -89.5273,
      "population": 200000,
      "area": 25.0
    },
    {
      "name": "Garland",
      "state": "US",
      "city": "Garland",
      "zipcode": null,
      "latitude": 34.716667,
      "longitude": -93.266667,
      "population": 200000,
      "area": 25.0
    },
    {
      "name": "43 km WNW of Petersville, KM",
      "state": "KM",
      "city": "43 km WNW of Petersville",
      "zipcode": null,
      "latitude": 62.662,
      "longitude": -151.542,
      "population": 200000,
      "area": 25.0
    },
    {
      "name": "55 km NE of Chase, KM",
      "state": "KM",
      "city": "55 km NE of Chase",
      "zipcode": null,
      "latitude": 62.773,
      "longitude": -149.275,
      "population": 200000,
      "area": 25.0
    },
    {
      "name": "61 km SW of Skwentna, KM",
      "state": "KM",
      "city": "61 km SW of Skwentna",
      "zipcode": null,
      "latitude": 61.542,
      "longitude": -152.07,
      "population": 200000,
      "area": 25.0
    },
    {
      "name": "40 km WNW of Tyonek, KM",
      "state": "KM",
      "city": "40 km WNW of Tyonek",
      "zipcode": null,
      "latitude": 61.167,
      "longitude": -151.862,
      "population": 200000,
      "area": 25.0
    },
    {
      "name": "9 km E of Ashford, KM",
      "state": "KM",
      "city": "9 km E of Ashford",
      "zipcode": null,
      "latitude": 46.751666666666665,
      "longitude": -121.91116666666667,
      "population": 200000,
      "area": 25.0
    },
    {
      "name": "21 km NW of Petersville, KM",
      "state": "KM",
      "city": "21 km NW of Petersville",
      "zipcode": null,
      "latitude": 62.619,
      "longitude": -151.08,
      "population": 200000,
      "area": 25.0
    },
    {
      "name": "11 km SSE of Atoka, KM",
      "state": "KM",
      "city": "11 km SSE of Atoka",
      "zipcode": null,
      "latitude": 32.669,
      "longitude": -104.3557,
      "population": 200000,
      "area": 25.0
    },
    {
      "name": "32 km SSE of Minto, KM",
      "state": "KM",
      "city": "32 km SSE of Minto",
      "zipcode": null,
      "latitude": 64.895,
      "longitude": -149.038,
      "population": 200000,
      "area": 25.0
    },
    {
      "name": "1 km WSW of Indios, KM",
      "state": "KM",
      "city": "1 km WSW of Indios",
      "zipcode": null,
      "latitude": 17.9868333333333,
      "longitude": -66.8316666666667,
      "population": 200000,
      "area": 25.0
    },
    {
      "name": "Osage",
      "state": "US",
      "city": "Osage",
      "zipcode": null,
      "latitude": 36.568752,
      "longitude": -96.849207,
      "population": 200000,
      "area": 25.0
    },
    {
      "name": "53 km WNW of Toyah, KM",
      "state": "KM",
      "city": "53 km WNW of Toyah",
      "zipcode": null,
      "latitude": 31.468,
      "longitude": -104.324,
      "population": 200000,
      "area": 25.0
    },
    {
      "name": "11 km WNW of Tyonek, KM",
      "state": "KM",
      "city": "11 km WNW of Tyonek",
      "zipcode": null,
      "latitude": 61.089,
      "longitude": -151.339,
      "population": 200000,
      "area": 25.0
    },
    {
      "name": "80 km WNW of Yakutat, KM",
      "state": "KM",
      "city": "80 km WNW of Yakutat",
      "zipcode": null,
      "latitude": 59.88,
      "longitude": -140.998,
      "population": 200000,
      "area": 25.0
    },
    {
      "name": "13 km WNW of Chase, KM",
      "state": "KM",
      "city": "13 km WNW of Chase",
      "zipcode": null,
      "latitude": 62.5,
      "longitude": -150.345,
      "population": 200000,
      "area": 25.0
    },
    {
      "name": "85 km ESE of Egegik, KM",
      "state": "KM",
      "city": "85 km ESE of Egegik",
      "zipcode": null,
      "latitude": 57.935,
      "longitude": -156.032,
      "population": 200000,
      "area": 25.0
    },
    {
      "name": "64 km W of Akhiok, KM",
      "state": "KM",
      "city": "64 km W of Akhiok",
      "zipcode": null,
      "latitude": 57.033,
      "longitude": -155.215,
      "population": 200000,
      "area": 25.0
    },
    {
      "name": "69 km W of Salamatof, KM",
      "state": "KM",
      "city": "69 km W of Salamatof",
      "zipcode": null,
      "latitude": 60.732,
      "longitude": -152.566,
      "population": 200000,
      "area": 25.0
    },
    {
      "name": "31 km NNW of Susitna, KM",
      "state": "KM",
      "city": "31 km NNW of Susitna",
      "zipcode": null,
      "latitude": 61.807,
      "longitude": -150.724,
      "population": 200000,
      "area": 25.0
    },
    {
      "name": "Perry",
      "state": "US",
      "city": "Perry",
      "zipcode": null,
      "latitude": 30.974167,
      "longitude": -88.866111,
      "population": 200000,
      "area": 25.0
    },
    {
      "name": "38 km SSE of Denali National Park, KM",
      "state": "KM",
      "city": "38 km SSE of Denali National Park",
      "zipcode": null,
      "latitude": 63.252,
      "longitude": -151.307,
      "population": 200000,
      "area": 25.0
    },
    {
      "name": "71 km WNW of Beluga, KM",
      "state": "KM",
      "city": "71 km WNW of Beluga",
      "zipcode": null,
      "latitude": 61.405,
      "longitude": -152.296,
      "population": 200000,
      "area": 25.0
    },
    {
      "name": "6 km SW of Volcano, KM",
      "state": "KM",
      "city": "6 km SW of Volcano",
      "zipcode": null,
      "latitude": 19.4073333740234,
      "longitude": -155.282501220703,
      "population": 200000,
      "area": 25.0
    },
    {
      "name": "38 km NE of Paxson, KM",
      "state": "KM",
      "city": "38 km NE of Paxson",
      "zipcode": null,
      "latitude": 63.353,
      "longitude": -145.128,
      "population": 200000,
      "area": 25.0
    },
    {
      "name": "12 km NE of Pāhala, KM",
      "state": "KM",
      "city": "12 km NE of Pāhala",
      "zipcode": null,
      "latitude": 19.2661666870117,
      "longitude": -155.385330200195,
      "population": 200000,
      "area": 25.0
    },
    {
      "name": "27 km ESE of Perryville, KM",
      "state": "KM",
      "city": "27 km ESE of Perryville",
      "zipcode": null,
      "latitude": 55.85,
      "longitude": -158.714,
      "population": 200000,
      "area": 25.0
    },
    {
      "name": "102 km N of Yakutat, KM",
      "state": "KM",
      "city": "102 km N of Yakutat",
      "zipcode": null,
      "latitude": 60.467,
      "longitude": -139.81,
      "population": 200000,
      "area": 25.0
    },
    {
      "name": "3 km N of Stanton, KM",
      "state": "KM",
      "city": "3 km N of Stanton",
      "zipcode": null,
      "latitude": 32.159,
      "longitude": -101.794,
      "population": 200000,
      "area": 25.0
    },
    {
      "name": "Logan",
      "state": "US",
      "city": "Logan",
      "zipcode": null,
      "latitude": 35.243252,
      "longitude": -93.666974,
      "population": 200000,
      "area": 25.0
    },
    {
      "name": "Stone",
      "state": "US",
      "city": "Stone",
      "zipcode": null,
      "latitude": 35.95415,
      "longitude": -92.167783,
      "population": 200000,
      "area": 25.0
    },
    {
      "name": "Ravalli",
      "state": "US",
      "city": "Ravalli",
      "zipcode": null,
      "latitude": 46.164317,
      "longitude": -113.877617,
      "population": 200000,
      "area": 25.0
    },
    {
      "name": "87 km WNW of Aleneva, KM",
      "state": "KM",
      "city": "87 km WNW of Aleneva",
      "zipcode": null,
      "latitude": 58.392,
      "longitude": -154.261,
      "population": 200000,
      "area": 25.0
    },
    {
      "name": "23 km SSE of King Salmon, KM",
      "state": "KM",
      "city": "23 km SSE of King Salmon",
      "zipcode": null,
      "latitude": 58.487,
      "longitude": -156.564,
      "population": 200000,
      "area": 25.0
    },
    {
      "name": "56 km WNW of Akhiok, KM",
      "state": "KM",
      "city": "56 km WNW of Akhiok",
      "zipcode": null,
      "latitude": 57.138,
      "longitude": -155.031,
      "population": 200000,
      "area": 25.0
    },
    {
      "name": "3 km WSW of Santo Domingo, KM",
      "state": "KM",
      "city": "3 km WSW of Santo Domingo",
      "zipcode": null,
      "latitude": 18.0493333333333,
      "longitude": -66.78,
      "population": 200000,
      "area": 25.0
    },
    {
      "name": "Montgomery",
      "state": "US",
      "city": "Montgomery",
      "zipcode": null,
      "latitude": 30.52045,
      "longitude": -95.728667,
      "population": 200000,
      "area": 25.0
    },
    {
      "name": "Walker",
      "state": "US",
      "city": "Walker",
      "zipcode": null,
      "latitude": 30.524133,
      "longitude": -95.57925,
      "population": 200000,
      "area": 25.0
    },
    {
      "name": "48 km W of Mentone, KM",
      "state": "KM",
      "city": "48 km W of Mentone",
      "zipcode": null,
      "latitude": 31.736,
      "longitude": -104.113,
      "population": 200000,
      "area": 25.0
    },
    {
      "name": "52 km NE of Kenny Lake, KM",
      "state": "KM",
      "city": "52 km NE of Kenny Lake",
      "zipcode": null,
      "latitude": 62.0138333333333,
      "longitude": -144.165333333333,
      "population": 200000,
      "area": 25.0
    },
    {
      "name": "55 km NE of Kenny Lake, KM",
      "state": "KM",
      "city": "55 km NE of Kenny Lake",
      "zipcode": null,
      "latitude": 62.0755,
      "longitude": -144.214333333333,
      "population": 200000,
      "area": 25.0
    },
    {
      "name": "109 km N of Yakutat, KM",
      "state": "KM",
      "city": "109 km N of Yakutat",
      "zipcode": null,
      "latitude": 60.528,
      "longitude": -139.734,
      "population": 200000,
      "area": 25.0
    },
    {
      "name": "Newton",
      "state": "US",
      "city": "Newton",
      "zipcode": null,
      "latitude": 35.808903,
      "longitude": -93.464358,
      "population": 200000,
      "area": 25.0
    },
    {
      "name": "Rapides",
      "state": "US",
      "city": "Rapides",
      "zipcode": null,
      "latitude": 31.197633,
      "longitude": -92.562217,
      "population": 200000,
      "area": 25.0
    },
    {
      "name": "34 km SE of Mina, KM",
      "state": "KM",
      "city": "34 km SE of Mina",
      "zipcode": null,
      "latitude": 38.1708,
      "longitude": -117.8328,
      "population": 200000,
      "area": 25.0
    },
    {
      "name": "26 km WSW of Pelican, KM",
      "state": "KM",
      "city": "26 km WSW of Pelican",
      "zipcode": null,
      "latitude": 57.868,
      "longitude": -136.637,
      "population": 200000,
      "area": 25.0
    },
    {
      "name": "45 km E of Chenega, KM",
      "state": "KM",
      "city": "45 km E of Chenega",
      "zipcode": null,
      "latitude": 60.142,
      "longitude": -147.211,
      "population": 200000,
      "area": 25.0
    },
    {
      "name": "87 km NNW of Karluk, KM",
      "state": "KM",
      "city": "87 km NNW of Karluk",
      "zipcode": null,
      "latitude": 58.3025,
      "longitude": -154.989,
      "population": 200000,
      "area": 25.0
    },
    {
      "name": "2 km ENE of Granite Falls, KM",
      "state": "KM",
      "city": "2 km ENE of Granite Falls",
      "zipcode": null,
      "latitude": 48.088166666666666,
      "longitude": -121.939,
      "population": 200000,
      "area": 25.0
    },
    {
      "name": "Potter",
      "state": "US",
      "city": "Potter",
      "zipcode": null,
      "latitude": 35.468784,
      "longitude": -101.832244,
      "population": 200000,
      "area": 25.0
    },
    {
      "name": "8 km SSE of Fox River, KM",
      "state": "KM",
      "city": "8 km SSE of Fox River",
      "zipcode": null,
      "latitude": 59.793,
      "longitude": -150.883,
      "population": 200000,
      "area": 25.0
    },
    {
      "name": "71 km NW of Ninilchik, KM",
      "state": "KM",
      "city": "71 km NW of Ninilchik",
      "zipcode": null,
      "latitude": 60.4753333333333,
      "longitude": -152.627666666667,
      "population": 200000,
      "area": 25.0
    },
    {
      "name": "Mendocino",
      "state": "US",
      "city": "Mendocino",
      "zipcode": null,
      "latitude": 39.718807,
      "longitude": -123.20401,
      "population": 200000,
      "area": 25.0
    },
    {
      "name": "Lafayette",
      "state": "US",
      "city": "Lafayette",
      "zipcode": null,
      "latitude": 34.49759,
      "longitude": -89.382263,
      "population": 200000,
      "area": 25.0
    },
    {
      "name": "96 km SSE of Akutan, KM",
      "state": "KM",
      "city": "96 km SSE of Akutan",
      "zipcode": null,
      "latitude": 53.354,
      "longitude": -165.135,
      "population": 200000,
      "area": 25.0
    },
    {
      "name": "35 km WNW of Anchor Point, KM",
      "state": "KM",
      "city": "35 km WNW of Anchor Point",
      "zipcode": null,
      "latitude": 59.918,
      "longitude": -152.406,
      "population": 200000,
      "area": 25.0
    },
    {
      "name": "32 km WNW of Anchor Point, KM",
      "state": "KM",
      "city": "32 km WNW of Anchor Point",
      "zipcode": null,
      "latitude": 59.903,
      "longitude": -152.363,
      "population": 200000,
      "area": 25.0
    },
    {
      "name": "136 km S of McCarthy, KM",
      "state": "KM",
      "city": "136 km S of McCarthy",
      "zipcode": null,
      "latitude": 60.209,
      "longitude": -143.135,
      "population": 200000,
      "area": 25.0
    },
    {
      "name": "54 km WSW of Clear, KM",
      "state": "KM",
      "city": "54 km WSW of Clear",
      "zipcode": null,
      "latitude": 64.09,
      "longitude": -150.247,
      "population": 200000,
      "area": 25.0
    },
    {
      "name": "5 km NW of Ivanof Bay, KM",
      "state": "KM",
      "city": "5 km NW of Ivanof Bay",
      "zipcode": null,
      "latitude": 55.9295,
      "longitude": -159.547833333333,
      "population": 200000,
      "area": 25.0
    },
    {
      "name": "34 km NNW of Ivanof Bay, KM",
      "state": "KM",
      "city": "34 km NNW of Ivanof Bay",
      "zipcode": null,
      "latitude": 56.1611666666667,
      "longitude": -159.783833333333,
      "population": 200000,
      "area": 25.0
    },
    {
      "name": "Harrison",
      "state": "US",
      "city": "Harrison",
      "zipcode": null,
      "latitude": 32.667308,
      "longitude": -94.104296,
      "population": 200000,
      "area": 25.0
    },
    {
      "name": "Pittsburg",
      "state": "US",
      "city": "Pittsburg",
      "zipcode": null,
      "latitude": 35.0475,
      "longitude": -95.3977778,
      "population": 200000,
      "area": 25.0
    },
    {
      "name": "Shelby",
      "state": "US",
      "city": "Shelby",
      "zipcode": null,
      "latitude": 33.4077778,
      "longitude": -86.5408333,
      "population": 200000,
      "area": 25.0
    },
    {
      "name": "Marengo",
      "state": "US",
      "city": "Marengo",
      "zipcode": null,
      "latitude": 32.2358333,
      "longitude": -87.915,
      "population": 200000,
      "area": 25.0
    },
    {
      "name": "29 km E of Honaunau-Napoopoo, KM",
      "state": "KM",
      "city": "29 km E of Honaunau-Napoopoo",
      "zipcode": null,
      "latitude": 19.48,
      "longitude": -155.581166666667,
      "population": 200000,
      "area": 25.0
    },
    {
      "name": "17 km WNW of Ivanof Bay, KM",
      "state": "KM",
      "city": "17 km WNW of Ivanof Bay",
      "zipcode": null,
      "latitude": 55.9848333333333,
      "longitude": -159.724,
      "population": 200000,
      "area": 25.0
    },
    {
      "name": "Houston",
      "state": "US",
      "city": "Houston",
      "zipcode": null,
      "latitude": 31.347207,
      "longitude": -95.258555,
      "population": 200000,
      "area": 25.0
    },
    {
      "name": "5 km ESE of Port Townsend, KM",
      "state": "KM",
      "city": "5 km ESE of Port Townsend",
      "zipcode": null,
      "latitude": 48.105,
      "longitude": -122.688,
      "population": 200000,
      "area": 25.0
    },
    {
      "name": "14 km SE of Pāhala, KM",
      "state": "KM",
      "city": "14 km SE of Pāhala",
      "zipcode": null,
      "latitude": 19.1206665039062,
      "longitude": -155.370498657227,
      "population": 200000,
      "area": 25.0
    },
    {
      "name": "97 km N of Yakutat, KM",
      "state": "KM",
      "city": "97 km N of Yakutat",
      "zipcode": null,
      "latitude": 60.415,
      "longitude": -139.564,
      "population": 200000,
      "area": 25.0
    },
    {
      "name": "37 km W of Happy Valley, KM",
      "state": "KM",
      "city": "37 km W of Happy Valley",
      "zipcode": null,
      "latitude": 59.969,
      "longitude": -152.399,
      "population": 200000,
      "area": 25.0
    },
    {
      "name": "69 km ESE of Denali Park, KM",
      "state": "KM",
      "city": "69 km ESE of Denali Park",
      "zipcode": null,
      "latitude": 63.599,
      "longitude": -147.533,
      "population": 200000,
      "area": 25.0
    },
    {
      "name": "Lat42.0Lng-112.5",
      "state": "US",
      "city": "Lat42.0Lng-112.5",
      "zipcode": null,
      "latitude": 41.73,
      "longitude": -112.02,
      "population": 200000,
      "area": 25.0
    },
    {
      "name": "Clay, MN",
      "state": "MN",
      "city": "Clay",
      "zipcode": null,
      "latitude": 46.92,
      "longitude": -96.5,
      "population": 200000,
      "area": 25.0
    },
    {
      "name": "26 km WNW of Ludlow, CA",
      "state": "CA",
      "city": "26 km WNW of Ludlow",
      "zipcode": null,
      "latitude": 34.8391666666667,
      "longitude": -116.410166666667,
      "population": 200000,
      "area": 25.0
    },
    {
      "name": "TX; Erath, TX",
      "state": "TX",
      "city": "TX; Erath",
      "zipcode": null,
      "latitude": 32.51,
      "longitude": -98.34,
      "population": 200000,
      "area": 25.0
    },
    {
      "name": "TX; Tom Green, TX",
      "state": "TX",
      "city": "TX; Tom Green",
      "zipcode": null,
      "latitude": 31.45,
      "longitude": -100.39,
      "population": 200000,
      "area": 25.0
    },
    {
      "name": "Jones",
      "state": "US",
      "city": "Jones",
      "zipcode": null,
      "latitude": 31.5603,
      "longitude": -88.9888,
      "population": 200000,
      "area": 25.0
    },
    {
      "name": "San Miguel",
      "state": "US",
      "city": "San Miguel",
      "zipcode": null,
      "latitude": 35.68405,
      "longitude": -104.67037,
      "population": 200000,
      "area": 25.0
    },
    {
      "name": "24 km W of Aleneva, KM",
      "state": "KM",
      "city": "24 km W of Aleneva",
      "zipcode": null,
      "latitude": 58.068,
      "longitude": -153.324,
      "population": 200000,
      "area": 25.0
    },
    {
      "name": "12 km ESE of Naalehu, KM",
      "state": "KM",
      "city": "12 km ESE of Naalehu",
      "zipcode": null,
      "latitude": 19.0394992828369,
      "longitude": -155.460159301758,
      "population": 200000,
      "area": 25.0
    },
    {
      "name": "59 km S of Cantwell, KM",
      "state": "KM",
      "city": "59 km S of Cantwell",
      "zipcode": null,
      "latitude": 62.859,
      "longitude": -149.071,
      "population": 200000,
      "area": 25.0
    },
    {
      "name": "45 km NW of Toyah, KM",
      "state": "KM",
      "city": "45 km NW of Toyah",
      "zipcode": null,
      "latitude": 31.625,
      "longitude": -104.107,
      "population": 200000,
      "area": 25.0
    },
    {
      "name": "17 km W of Searles Valley, CA",
      "state": "CA",
      "city": "17 km W of Searles Valley",
      "zipcode": null,
      "latitude": 35.7668333333333,
      "longitude": -117.596,
      "population": 200000,
      "area": 25.0
    },
    {
      "name": "11 km NE of Coso Junction, CA",
      "state": "CA",
      "city": "11 km NE of Coso Junction",
      "zipcode": null,
      "latitude": 36.1015,
      "longitude": -117.852833333333,
      "population": 200000,
      "area": 25.0
    },
    {
      "name": "69 km S of Kokhanok, KM",
      "state": "KM",
      "city": "69 km S of Kokhanok",
      "zipcode": null,
      "latitude": 58.822,
      "longitude": -154.55,
      "population": 200000,
      "area": 25.0
    },
    {
      "name": "10 km W of Hayfork, CA",
      "state": "CA",
      "city": "10 km W of Hayfork",
      "zipcode": null,
      "latitude": 40.5681648254395,
      "longitude": -123.303001403809,
      "population": 200000,
      "area": 25.0
    },
    {
      "name": "15 km S of Searles Valley, CA",
      "state": "CA",
      "city": "15 km S of Searles Valley",
      "zipcode": null,
      "latitude": 35.6358333333333,
      "longitude": -117.422333333333,
      "population": 200000,
      "area": 25.0
    },
    {
      "name": "62 km WNW of Toyah, KM",
      "state": "KM",
      "city": "62 km WNW of Toyah",
      "zipcode": null,
      "latitude": 31.612,
      "longitude": -104.347,
      "population": 200000,
      "area": 25.0
    },
    {
      "name": "41 km NW of Toyah, KM",
      "state": "KM",
      "city": "41 km NW of Toyah",
      "zipcode": null,
      "latitude": 31.544,
      "longitude": -104.132,
      "population": 200000,
      "area": 25.0
    },
    {
      "name": "68 km W of Salamatof, KM",
      "state": "KM",
      "city": "68 km W of Salamatof",
      "zipcode": null,
      "latitude": 60.5235,
      "longitude": -152.563333333333,
      "population": 200000,
      "area": 25.0
    },
    {
      "name": "6 km SSW of Houston, KM",
      "state": "KM",
      "city": "6 km SSW of Houston",
      "zipcode": null,
      "latitude": 61.576,
      "longitude": -149.841,
      "population": 200000,
      "area": 25.0
    },
    {
      "name": "3 km NW of Farmers Loop, KM",
      "state": "KM",
      "city": "3 km NW of Farmers Loop",
      "zipcode": null,
      "latitude": 64.929,
      "longitude": -147.743,
      "population": 200000,
      "area": 25.0
    },
    {
      "name": "70 km SW of Skwentna, KM",
      "state": "KM",
      "city": "70 km SW of Skwentna",
      "zipcode": null,
      "latitude": 61.538,
      "longitude": -152.331,
      "population": 200000,
      "area": 25.0
    },
    {
      "name": "41 km WNW of Toyah, KM",
      "state": "KM",
      "city": "41 km WNW of Toyah",
      "zipcode": null,
      "latitude": 31.52,
      "longitude": -104.155,
      "population": 200000,
      "area": 25.0
    },
    {
      "name": "79 km ESE of Denali Park, KM",
      "state": "KM",
      "city": "79 km ESE of Denali Park",
      "zipcode": null,
      "latitude": 63.555,
      "longitude": -147.364,
      "population": 200000,
      "area": 25.0
    },
    {
      "name": "42 km NW of Toyah, KM",
      "state": "KM",
      "city": "42 km NW of Toyah",
      "zipcode": null,
      "latitude": 31.529,
      "longitude": -104.159,
      "population": 200000,
      "area": 25.0
    },
    {
      "name": "87 km ESE of King Salmon, KM",
      "state": "KM",
      "city": "87 km ESE of King Salmon",
      "zipcode": null,
      "latitude": 58.2901666666667,
      "longitude": -155.372666666667,
      "population": 200000,
      "area": 25.0
    },
    {
      "name": "61 km S of Whites City, KM",
      "state": "KM",
      "city": "61 km S of Whites City",
      "zipcode": null,
      "latitude": 31.627,
      "longitude": -104.473,
      "population": 200000,
      "area": 25.0
    },
    {
      "name": "50 km W of Mentone, KM",
      "state": "KM",
      "city": "50 km W of Mentone",
      "zipcode": null,
      "latitude": 31.701,
      "longitude": -104.132,
      "population": 200000,
      "area": 25.0
    },
    {
      "name": "38 km NW of Toyah, KM",
      "state": "KM",
      "city": "38 km NW of Toyah",
      "zipcode": null,
      "latitude": 31.531,
      "longitude": -104.11,
      "population": 200000,
      "area": 25.0
    },
    {
      "name": "97 km SE of Kingston, KM",
      "state": "KM",
      "city": "97 km SE of Kingston",
      "zipcode": null,
      "latitude": 38.6173,
      "longitude": -116.2424,
      "population": 200000,
      "area": 25.0
    },
    {
      "name": "40 km NW of Toyah, KM",
      "state": "KM",
      "city": "40 km NW of Toyah",
      "zipcode": null,
      "latitude": 31.541,
      "longitude": -104.127,
      "population": 200000,
      "area": 25.0
    },
    {
      "name": "18 km S of Tatitlek, KM",
      "state": "KM",
      "city": "18 km S of Tatitlek",
      "zipcode": null,
      "latitude": 60.703,
      "longitude": -146.701,
      "population": 200000,
      "area": 25.0
    },
    {
      "name": "4 km NNW of Anacortes, KM",
      "state": "KM",
      "city": "4 km NNW of Anacortes",
      "zipcode": null,
      "latitude": 48.54783248901367,
      "longitude": -122.62999725341797,
      "population": 200000,
      "area": 25.0
    },
    {
      "name": "15 km ESE of Pāhala, KM",
      "state": "KM",
      "city": "15 km ESE of Pāhala",
      "zipcode": null,
      "latitude": 19.1371669769287,
      "longitude": -155.352493286133,
      "population": 200000,
      "area": 25.0
    },
    {
      "name": "43 km WNW of Skwentna, KM",
      "state": "KM",
      "city": "43 km WNW of Skwentna",
      "zipcode": null,
      "latitude": 62.185,
      "longitude": -152.117,
      "population": 200000,
      "area": 25.0
    },
    {
      "name": "18 km WSW of Anchorage, KM",
      "state": "KM",
      "city": "18 km WSW of Anchorage",
      "zipcode": null,
      "latitude": 61.175,
      "longitude": -150.235,
      "population": 200000,
      "area": 25.0
    },
    {
      "name": "79 km NW of Ninilchik, KM",
      "state": "KM",
      "city": "79 km NW of Ninilchik",
      "zipcode": null,
      "latitude": 60.4935,
      "longitude": -152.782666666667,
      "population": 200000,
      "area": 25.0
    },
    {
      "name": "11 km SW of Searles Valley, CA",
      "state": "CA",
      "city": "11 km SW of Searles Valley",
      "zipcode": null,
      "latitude": 35.705,
      "longitude": -117.504666666667,
      "population": 200000,
      "area": 25.0
    },
    {
      "name": "64 km WSW of Nanwalek, KM",
      "state": "KM",
      "city": "64 km WSW of Nanwalek",
      "zipcode": null,
      "latitude": 59.043,
      "longitude": -152.867,
      "population": 200000,
      "area": 25.0
    },
    {
      "name": "14 km E of Larsen Bay, KM",
      "state": "KM",
      "city": "14 km E of Larsen Bay",
      "zipcode": null,
      "latitude": 57.521,
      "longitude": -153.739,
      "population": 200000,
      "area": 25.0
    },
    {
      "name": "78 km NE of Nikolski, KM",
      "state": "KM",
      "city": "78 km NE of Nikolski",
      "zipcode": null,
      "latitude": 53.4905,
      "longitude": -168.131333333333,
      "population": 200000,
      "area": 25.0
    },
    {
      "name": "53 km S of Whites City, KM",
      "state": "KM",
      "city": "53 km S of Whites City",
      "zipcode": null,
      "latitude": 31.696,
      "longitude": -104.363,
      "population": 200000,
      "area": 25.0
    },
    {
      "name": "32 km SW of Jackpot, KM",
      "state": "KM",
      "city": "32 km SW of Jackpot",
      "zipcode": null,
      "latitude": 41.7406,
      "longitude": -114.8982,
      "population": 200000,
      "area": 25.0
    },
    {
      "name": "251 km SSE of King Cove, KM",
      "state": "KM",
      "city": "251 km SSE of King Cove",
      "zipcode": null,
      "latitude": 52.99,
      "longitude": -160.797,
      "population": 200000,
      "area": 25.0
    },
    {
      "name": "18 km S of Trona, CA",
      "state": "CA",
      "city": "18 km S of Trona",
      "zipcode": null,
      "latitude": 35.6033333333333,
      "longitude": -117.408666666667,
      "population": 200000,
      "area": 25.0
    },
    {
      "name": "14 km ENE of Ridgecrest, CA",
      "state": "CA",
      "city": "14 km ENE of Ridgecrest",
      "zipcode": null,
      "latitude": 35.6778333333333,
      "longitude": -117.5425,
      "population": 200000,
      "area": 25.0
    },
    {
      "name": "38 km WSW of Shoshone, KM",
      "state": "KM",
      "city": "38 km WSW of Shoshone",
      "zipcode": null,
      "latitude": 35.8929,
      "longitude": -116.6834,
      "population": 200000,
      "area": 25.0
    },
    {
      "name": "20 km ENE of Goldfield, KM",
      "state": "KM",
      "city": "20 km ENE of Goldfield",
      "zipcode": null,
      "latitude": 37.8105,
      "longitude": -117.0349,
      "population": 200000,
      "area": 25.0
    },
    {
      "name": "4 km S of Bishop, CA",
      "state": "CA",
      "city": "4 km S of Bishop",
      "zipcode": null,
      "latitude": 37.3326683044434,
      "longitude": -118.396667480469,
      "population": 200000,
      "area": 25.0
    },
    {
      "name": "31 km ENE of Susitna North, KM",
      "state": "KM",
      "city": "31 km ENE of Susitna North",
      "zipcode": null,
      "latitude": 62.278,
      "longitude": -149.305,
      "population": 200000,
      "area": 25.0
    },
    {
      "name": "63 km WNW of Nikiski, KM",
      "state": "KM",
      "city": "63 km WNW of Nikiski",
      "zipcode": null,
      "latitude": 60.967,
      "longitude": -152.311166666667,
      "population": 200000,
      "area": 25.0
    },
    {
      "name": "41 km NNE of Petersville, KM",
      "state": "KM",
      "city": "41 km NNE of Petersville",
      "zipcode": null,
      "latitude": 62.862,
      "longitude": -150.599,
      "population": 200000,
      "area": 25.0
    },
    {
      "name": "3 km W of West Point, KM",
      "state": "KM",
      "city": "3 km W of West Point",
      "zipcode": null,
      "latitude": 41.1195,
      "longitude": -112.125666666667,
      "population": 200000,
      "area": 25.0
    },
    {
      "name": "7 km SSE of Pearsall, KM",
      "state": "KM",
      "city": "7 km SSE of Pearsall",
      "zipcode": null,
      "latitude": 28.832,
      "longitude": -99.055,
      "population": 200000,
      "area": 25.0
    },
    {
      "name": "Blaine",
      "state": "US",
      "city": "Blaine",
      "zipcode": null,
      "latitude": 48.81675,
      "longitude": -109.41723,
      "population": 200000,
      "area": 25.0
    },
    {
      "name": "Carbon",
      "state": "US",
      "city": "Carbon",
      "zipcode": null,
      "latitude": 45.092167,
      "longitude": -109.3142,
      "population": 200000,
      "area": 25.0
    },
    {
      "name": "Fergus",
      "state": "US",
      "city": "Fergus",
      "zipcode": null,
      "latitude": 46.751617,
      "longitude": -109.100917,
      "population": 200000,
      "area": 25.0
    },
    {
      "name": "34 km NW of Beluga, KM",
      "state": "KM",
      "city": "34 km NW of Beluga",
      "zipcode": null,
      "latitude": 61.341,
      "longitude": -151.573,
      "population": 200000,
      "area": 25.0
    },
    {
      "name": "31 km SSW of Mina, KM",
      "state": "KM",
      "city": "31 km SSW of Mina",
      "zipcode": null,
      "latitude": 38.1313,
      "longitude": -118.2474,
      "population": 200000,
      "area": 25.0
    },
    {
      "name": "100 km E of McCarthy, KM",
      "state": "KM",
      "city": "100 km E of McCarthy",
      "zipcode": null,
      "latitude": 61.584,
      "longitude": -141.061,
      "population": 200000,
      "area": 25.0
    },
    {
      "name": "44 km WNW of Beluga, KM",
      "state": "KM",
      "city": "44 km WNW of Beluga",
      "zipcode": null,
      "latitude": 61.273,
      "longitude": -151.87,
      "population": 200000,
      "area": 25.0
    },